[
  {
    "name": "Falls of Lora",
    "latitude": "56.4585",
    "longitude": "-5.3918",
    "grade": "4",
    "guidebook_link": "https://www.ukriversguidebook.co.uk/rivers/scotland/west-highlands/falls-of-lora-tidal-rapid",
    "sca_guidebook_no": "213",
    "info_link": "www.fallsoflora.info",
    "access_issue": "",
    "google_mymaps": "",
    "kml": "",
    "webcam": "",
    "notes": "Dates listed here are daylight ebb flows over 3.2m range, check link below for full details",
    "put_in_lat": "57.0759",
    "put_in_long": "-4.84497",
    "get_out_lat": "57.0759",
    "get_out_long": "-4.84497",
    "constant": "",
    "dates": [
    ]
  },
  {
    "name": "Doon (Ness Glen)",
    "latitude": "55.2843",
    "longitude": "-4.3996",
    "grade": "3",
    "guidebook_link": "https://www.ukriversguidebook.co.uk/rivers/scotland/southern-uplands/river-doon-ness-glen",
    "sca_guidebook_no": "278",
    "info_link": "",
    "access_issue": "",
    "google_mymaps": "https://www.google.com/maps/d/edit?mid=1D3tNHsjyNitqR7H3KnxfbGCkupQuulXk&usp=sharing",
    "kml": "",
    "webcam": "https://www.farsondigitalwatercams.com/locations/doonfoot",
    "notes": "Constant dam release, beware of higher than usual releases when lots of water around",
    "put_in_lat": "55.2843",
    "put_in_long": "-4.3996",
    "get_out_lat": "55.2951",
    "get_out_long": "-4.3999",
    "constant": "1",
    "dates": [
      ""
    ]
  },
  {
    "name": "Awe",
    "latitude": "56.4101",
    "longitude": "-5.1693",
    "grade": "2/3",
    "guidebook_link": "https://www.ukriversguidebook.co.uk/rivers/scotland/west-highlands/river-awe",
    "sca_guidebook_no": "176",
    "info_link": "",
    "access_issue": "",
    "google_mymaps": "",
    "kml": "",
    "webcam": "",
    "notes": "Releases are either one day or Friday midday to Monday midday",
    "put_in_lat": "",
    "put_in_long": "",
    "get_out_lat": "",
    "get_out_long": "",
    "constant": "",
    "dates": [
    ]
  },
  {
    "name": "Garry (Great Glen)",
    "latitude": "57.0753",
    "longitude": "-4.8439",
    "grade": "2/3",
    "guidebook_link": "https://www.ukriversguidebook.co.uk/rivers/scotland/west-highlands/river-garry",
    "sca_guidebook_no": "094",
    "info_link": "",
    "access_issue": "",
    "google_mymaps": "",
    "kml": "",
    "webcam": "",
    "notes": "Check calendar for times.",
    "put_in_lat": "",
    "put_in_long": "",
    "get_out_lat": "",
    "get_out_long": "",
    "constant": "",
    "dates": [
    ]
  },
  {
    "name": "Lyon",
    "latitude": "56.5942",
    "longitude": "-4.0720",
    "grade": "3/4+(5)",
    "guidebook_link": "https://www.ukriversguidebook.co.uk/rivers/scotland/central-highlands/river-lyon",
    "sca_guidebook_no": "220",
    "info_link": "",
    "access_issue": "",
    "google_mymaps": "https://www.google.com/maps/d/u/0/viewer?fbclid=IwAR2ETrpl9W0m8rO6wPYbbjMW8mdYcXXPVE8GxjIBxprXxTTnJMw7lpbSF70&mid=1Ffk4iDTTO2TmowCVlHCXgF9OCnIlkEWV&ll=56.599026451744315%2C-4.102949854024018&z=16",
    "kml": "",
    "webcam": "",
    "notes": "Dates listed are the day after water release when it arrives at the paddled section",
    "put_in_lat": "",
    "put_in_long": "",
    "get_out_lat": "",
    "get_out_long": "",
    "constant": "",
    "dates": [
    ]
  },
  {
    "name": "Moriston",
    "latitude": "57.2023",
    "longitude": "-4.7198",
    "grade": "4(4+)",
    "guidebook_link": "https://www.ukriversguidebook.co.uk/rivers/scotland/far-north/river-moriston-upper-section",
    "sca_guidebook_no": "090",
    "info_link": "",
    "access_issue": "",
    "google_mymaps": "",
    "kml": "",
    "webcam": "",
    "notes": "Time vary, check calendar",
    "put_in_lat": "",
    "put_in_long": "",
    "get_out_lat": "",
    "get_out_long": "",
    "constant": "",
    "dates": [
    ]
  },
  {
    "name": "Tummel (Upper)",
    "latitude": "56.7068",
    "longitude": "-4.0888",
    "grade": "2/3(4+)",
    "guidebook_link": "https://www.ukriversguidebook.co.uk/rivers/scotland/central-highlands/river-tummel-dunalastair-water-to-loch-tummel",
    "sca_guidebook_no": "217",
    "info_link": "www.paddlescotland.org.uk/go-paddling/water-releases",
    "access_issue": "",
    "google_mymaps": "https://www.google.com/maps/d/u/0/edit?mid=15FRRb2eyfPut3nR3Ebo0s4x_BpblUqw&usp=sharing",
    "kml": "",
    "webcam": "",
    "notes": "Releases commence at 14:00 on the first day continuing for 47 hours until 13:00 on day three.",
    "put_in_lat": "",
    "put_in_long": "",
    "get_out_lat": "",
    "get_out_long": "",
    "constant": "",
    "dates": [
    ]
  },
  {
    "name": "Tummel (Lower)",
    "latitude": "56.7191",
    "longitude": "-3.8247",
    "grade": "3(4)",
    "guidebook_link": "https://www.ukriversguidebook.co.uk/rivers/scotland/central-highlands/river-tummel-loch-tummel-to-loch-faskally",
    "sca_guidebook_no": "217",
    "info_link": "",
    "access_issue": "https://www.facebook.com/groups/267941769907508/?multi_permalinks=4238057909562521",
    "google_mymaps": "https://www.google.com/maps/d/u/0/edit?mid=15FRRb2eyfPut3nR3Ebo0s4x_BpblUqw&usp=sharing",
    "kml": "",
    "webcam": "",
    "notes": "Releases are 16:00 Fridays to 08:00 Mondays",
    "put_in_lat": "",
    "put_in_long": "",
    "get_out_lat": "",
    "get_out_long": "",
    "constant": "",
    "dates": [
    ]
  },
  {
    "name": "Solway Bore",
    "latitude": "54.964222",
    "longitude": "-3.185575",
    "grade": "",
    "guidebook_link": "",
    "sca_guidebook_no": "",
    "info_link": "https://caltrics.com/calendar/the-severn-bore-calendar/69263",
    "access_issue": "",
    "google_mymaps": "",
    "kml": "",
    "webcam": "",
    "notes": "No significant bore dates in 2026. 4 and 5* flows in daylight. Ask <a href='https://www.borderkayaks.co.uk/'>Border Kayaks</a> for info.",
    "put_in_lat": "",
    "put_in_long": "",
    "get_out_lat": "",
    "get_out_long": "",
    "constant": "",
    "dates": [
    ]
  },
  {
    "name": "Loch Seaforth Rapids",
    "latitude": "58.045341",
    "longitude": "-6.668076",
    "grade": "3",
    "guidebook_link": "",
    "sca_guidebook_no": "077",
    "info_link": "tides.willyweather.co.uk/he/western-isles/loch-seaforthw.html",
    "access_issue": "",
    "google_mymaps": "",
    "kml": "",
    "webcam": "",
    "notes": "Needs tidal range above 4m. Get there 2 hours before low water.",
    "put_in_lat": "",
    "put_in_long": "",
    "get_out_lat": "",
    "get_out_long": "",
    "constant": "",
    "dates": [

    ]
  },
  {
    "name": "Meig (Lower)",
    "latitude": "57.564946",
    "longitude": "-4.716651",
    "grade": "4",
    "guidebook_link": "https://www.ukriversguidebook.co.uk/rivers/scotland/far-north/river-meig-gorge",
    "sca_guidebook_no": "54",
    "info_link": "",
    "access_issue": "",
    "google_mymaps": "",
    "kml": "",
    "webcam": "",
    "notes": "Constant low flow, higher flows Thursdays June to October",
    "put_in_lat": "57.564946",
    "put_in_long": "-4.716651",
    "get_out_lat": "57.569549",
    "get_out_long": "-4.700172",
    "constant": "1",
    "dates": [

    ]
  }
]