[
    {
        "access_issue": "",
        "classification": "Good ecological potential",
        "classification_url": "https://www.sepa.org.uk/data-visualisation/water-classification-hub/?display=information_sheet&waterbodyid=20254",
        "gauge_location_code": "234189",
        "gauge_name": "Craigard",
        "get_out_lat": "57.0711",
        "get_out_long": "-4.8329",
        "google_mymaps": "https://drive.google.com/open?id=1IPf8zywLzDxXK26S82mTPMQckW8pdSnY&usp=sharing",
        "grade": "3",
        "guidebook_link": "https://www.ukriversguidebook.co.uk/rivers/scotland/west-highlands/river-garry",
        "high_value": "1",
        "huge_value": "1.8",
        "kml": "http://canoescotland.org/wheres-the-water/kml/garry.kmz",
        "latitude": "57.0759",
        "longitude": "-4.84497",
        "low_value": "0.6",
        "medium_value": "0.8",
        "name": "Garry (Great Glen)",
        "notes": "",
        "put_in_lat": "57.0753",
        "put_in_long": "-4.8439",
        "sca_guidebook_no": "94",
        "scrape_value": "0.4",
        "very_high_value": "1.4",
        "webcam": ""
    },
    {
        "access_issue": "",
        "classification": "Good",
        "classification_url": "https://www.sepa.org.uk/data-visualisation/water-classification-hub/?display=information_sheet&waterbodyid=5200",
        "gauge_location_code": "9514",
        "gauge_name": "Norham",
        "google_mymaps": "",
        "grade": "1",
        "guidebook_link": "",
        "high_value": "2",
        "huge_value": "3.5",
        "kml": "",
        "latitude": "55.722689",
        "longitude": "-2.1633731",
        "low_value": "1.2",
        "medium_value": "1.7",
        "name": "Tweed (Berwick)",
        "notes": "Old gauge near the sea but calibrated for Fairnilee",
        "sca_guidebook_no": "306",
        "scrape_value": "0",
        "very_high_value": "2.5"
    },
    {
        "access_issue": "",
        "classification": "Moderate",
        "classification_url": "https://www.sepa.org.uk/data-visualisation/water-classification-hub/?display=information_sheet&waterbodyid=23394",
        "gauge_location_code": "234287",
        "gauge_name": "Ness-side",
        "get_out_lat": "57.4665",
        "get_out_long": "-4.2300",
        "google_mymaps": "",
        "grade": "1/2",
        "guidebook_link": "",
        "high_value": "1.6",
        "huge_value": "2.3",
        "kml": "",
        "latitude": "57.4631",
        "longitude": "-4.23265",
        "low_value": "0.9",
        "medium_value": "1.3",
        "name": "Ness",
        "notes": "",
        "put_in_lat": "57.4327",
        "put_in_long": "-4.3036",
        "sca_guidebook_no": "80",
        "scrape_value": "0",
        "very_high_value": "2",
        "webcam": ""
    },
    {
        "access_issue": "",
        "classification": "Moderate ecological potential",
        "classification_url": "https://www.sepa.org.uk/data-visualisation/water-classification-hub/?display=information_sheet&waterbodyid=10031",
        "gauge_location_code": "133073",
        "gauge_name": "Craigend",
        "get_out_lat": "55.8637",
        "get_out_long": "-4.5304",
        "google_mymaps": "",
        "grade": "3(4+)",
        "guidebook_link": "",
        "high_value": "0.6",
        "huge_value": "1",
        "kml": "",
        "latitude": "55.8566",
        "longitude": "-4.56654",
        "low_value": "0.4",
        "medium_value": "0.5",
        "name": "Gryfe",
        "notes": "",
        "put_in_lat": "55.8605",
        "put_in_long": "-4.5929",
        "sca_guidebook_no": "274",
        "scrape_value": "0.3",
        "very_high_value": "0.8",
        "webcam": ""
    },
    {
        "access_issue": "http://canoescotland.org/news/river-yarrow-fallen-tree-and-wire",
        "classification": "Moderate",
        "classification_url": "https://www.sepa.org.uk/data-visualisation/water-classification-hub/?display=information_sheet&waterbodyid=5290",
        "gauge_location_code": "14985",
        "gauge_name": "Philiphaugh",
        "get_out_lat": "55.5501",
        "get_out_long": "-2.8508",
        "google_mymaps": "https://drive.google.com/open?id=1SW_LEzv-d0Qt9WyonD7cjVDOzm1L_O5M&usp=sharing",
        "grade": "2/3",
        "guidebook_link": "https://www.ukriversguidebook.co.uk/rivers/scotland/southern-uplands/river-yarrow-yarrowford-to-generals-brig",
        "high_value": "1.0",
        "huge_value": "1.3",
        "kml": "",
        "latitude": "55.5514",
        "longitude": "-2.96803",
        "low_value": "0.5",
        "medium_value": "0.8",
        "name": "Yarrow",
        "notes": "",
        "put_in_lat": "55.5596",
        "put_in_long": "-2.9393",
        "sca_guidebook_no": "309",
        "scrape_value": "0.4",
        "very_high_value": "1",
        "webcam": ""
    },
    {
        "access_issue": "",
        "classification": "Good",
        "classification_url": "https://www.sepa.org.uk/data-visualisation/water-classification-hub/?display=information_sheet&waterbodyid=10420",
        "gauge_location_code": "133111",
        "gauge_name": "Mainholm",
        "get_out_lat": "55.4749",
        "get_out_long": "-4.5533",
        "google_mymaps": "https://drive.google.com/open?id=1pmVudeiB-H-xoCt334mU3qMVMSCJ0uW-&usp=sharing",
        "grade": "2 (3/4)",
        "guidebook_link": "",
        "high_value": "1.6",
        "huge_value": "2.5",
        "kml": "",
        "latitude": "55.4798",
        "longitude": "-4.48036",
        "low_value": "0.6",
        "medium_value": "1.3",
        "name": "Ayr",
        "notes": "New calibrations Jan 2019. Poorly calibrated, more calibrations welcome on this gauge and Catrine gauge. Ignore gauge calibration in guidebook which is wrong.",
        "put_in_lat": "55.4997",
        "put_in_long": "-4.3518",
        "sca_guidebook_no": "280",
        "scrape_value": "0.4",
        "very_high_value": "2.0",
        "webcam": "https://www.farsondigitalwatercams.com/locations/tarholm",
        "webcam_thumbnail": "https://watercams.azureedge.net/live-images/W1siZiIsImF5ci8yMDE5LzAxLzIxLzA4OjUwOjAwLmpwZyJdLFsicCIsInRodW1iIiwieDE1MCJdXQ.jpg"
    },
    {
        "access_issue": "",
        "classification": "Good",
        "classification_url": "https://www.sepa.org.uk/data-visualisation/water-classification-hub/?display=information_sheet&waterbodyid=23000",
        "gauge_location_code": "234306",
        "gauge_name": "Shenachie",
        "get_out_lat": "57.5525",
        "get_out_long": "-3.6626",
        "google_mymaps": "https://drive.google.com/open?id=18PxkUQKPHAZne4n7eOwBn0-dH3jLhSEl&usp=sharing",
        "grade": "3/4 (5)",
        "guidebook_link": "https://www.ukriversguidebook.co.uk/rivers/scotland/north-east/river-findhorn-randolphs-leap-to-mains-of-sluie",
        "high_value": "0.37",
        "huge_value": "0.8",
        "kml": "",
        "latitude": "57.588",
        "longitude": "-3.65982",
        "low_value": "0.2",
        "medium_value": "0.3",
        "name": "Findhorn (Gorge)",
        "notes": "",
        "put_in_lat": "57.5250",
        "put_in_long": "-3.6713",
        "sca_guidebook_no": "193",
        "scrape_value": "0",
        "very_high_value": "0.5",
        "webcam": ""
    },
    {
        "access_issue": "",
        "classification": "Good",
        "classification_url": "https://www.sepa.org.uk/data-visualisation/water-classification-hub/?display=information_sheet&waterbodyid=20057",
        "gauge_location_code": "234174",
        "gauge_name": "Bruachrobie",
        "get_out_lat": "58.0113",
        "get_out_long": "-3.8505",
        "google_mymaps": "",
        "grade": "2",
        "guidebook_link": "",
        "high_value": "1.6",
        "huge_value": "2",
        "kml": "",
        "latitude": "58.0126",
        "longitude": "-3.90392",
        "low_value": "0.9",
        "medium_value": "1.1",
        "name": "Brora",
        "notes": "",
        "put_in_lat": "58.0246",
        "put_in_long": "-3.9328",
        "sca_guidebook_no": "4",
        "scrape_value": "0.8",
        "very_high_value": "1.8",
        "webcam": ""
    },
    {
        "access_issue": "",
        "classification": "Good",
        "classification_url": "https://www.sepa.org.uk/data-visualisation/water-classification-hub/?display=information_sheet&waterbodyid=20558",
        "gauge_location_code": "234264",
        "gauge_name": "Little Assynt",
        "get_out_lat": "58.1557",
        "get_out_long": "-5.2366",
        "google_mymaps": "",
        "grade": "4",
        "guidebook_link": "https://www.ukriversguidebook.co.uk/rivers/scotland/far-north/river-inver",
        "high_value": "0.9",
        "huge_value": "1.3",
        "kml": "",
        "latitude": "58.1602",
        "longitude": "-5.19825",
        "low_value": "0.8",
        "medium_value": "0.85",
        "name": "Inver",
        "notes": "Calibrations changed Jan 2019",
        "put_in_lat": "58.1647",
        "put_in_long": "-5.2065",
        "sca_guidebook_no": "16",
        "scrape_value": "0.6",
        "very_high_value": "1.0",
        "webcam": ""
    },
    {
        "access_issue": "",
        "classification": "Good",
        "classification_url": "https://www.sepa.org.uk/data-visualisation/water-classification-hub/?display=information_sheet&waterbodyid=20191",
        "gauge_location_code": "234227",
        "gauge_name": "Glenmeanie",
        "get_out_lat": "57.5542",
        "get_out_long": "-4.7866",
        "google_mymaps": "",
        "grade": "2/3",
        "guidebook_link": "https://www.ukriversguidebook.co.uk/rivers/scotland/far-north/river-meig-upper-section-above-dam",
        "high_value": "0.8",
        "huge_value": "1.5",
        "kml": "",
        "latitude": "57.554",
        "longitude": "-4.77425",
        "low_value": "0.2",
        "medium_value": "0.5",
        "name": "Upper Meig",
        "notes": "",
        "put_in_lat": "57.5553",
        "put_in_long": "-4.8376",
        "sca_guidebook_no": "54",
        "scrape_value": "0",
        "very_high_value": "1.3",
        "webcam": ""
    },
    {
        "access_issue": "",
        "classification": "Moderate",
        "classification_url": "https://www.sepa.org.uk/data-visualisation/water-classification-hub/?display=information_sheet&waterbodyid=6832",
        "gauge_location_code": "14890",
        "gauge_name": "Kinbuck",
        "get_out_lat": "56.1564",
        "get_out_long": "-3.9519",
        "google_mymaps": "",
        "grade": "3+(4)",
        "guidebook_link": "https://www.ukriversguidebook.co.uk/rivers/scotland/central-highlands/river-allan",
        "high_value": "1.3",
        "huge_value": "1.7",
        "kml": "",
        "latitude": "56.1611",
        "longitude": "-3.95576",
        "low_value": "1",
        "medium_value": "1.1",
        "name": "Allan Water",
        "notes": "",
        "put_in_lat": "56.2127",
        "put_in_long": "-3.9587",
        "sca_guidebook_no": "258",
        "scrape_value": "0.7",
        "very_high_value": "1.5",
        "webcam": ""
    },
    {
        "access_issue": "http://canoescotland.org/news/stanley-access-2018",
        "classification": "Good",
        "classification_url": "https://www.sepa.org.uk/data-visualisation/water-classification-hub/?display=information_sheet&waterbodyid=6498",
        "gauge_location_code": "14937",
        "gauge_name": "Ballathie",
        "get_out_lat": "56.4536",
        "get_out_long": "-3.4629",
        "google_mymaps": "https://drive.google.com/open?id=1A3Jqx9E46jVymhbP1-3UNudWxdx4PNuG&usp=sharing",
        "grade": "2/3",
        "guidebook_link": "https://www.ukriversguidebook.co.uk/rivers/scotland/central-highlands/river-tay-stanley-to-thistlebrig",
        "high_value": "2",
        "huge_value": "5",
        "kml": "/wheres-the-water/kml/stanley.kmz",
        "latitude": "56.4811",
        "longitude": "-3.42911",
        "low_value": "0",
        "medium_value": "1",
        "name": "Tay (Stanley)",
        "notes": "",
        "put_in_lat": "56.4881",
        "put_in_long": "-3.4321",
        "sca_guidebook_no": "218",
        "scrape_value": "0",
        "very_high_value": "2.7",
        "webcam": ""
    },
    {
        "access_issue": "http://canoescotland.org/news/middle-findhorn-fence",
        "classification": "",
        "classification_url": "",
        "gauge_location_code": "234306",
        "gauge_name": "Shenachie",
        "get_out_lat": "57.5250",
        "get_out_long": "-3.6713",
        "google_mymaps": "https://drive.google.com/open?id=18PxkUQKPHAZne4n7eOwBn0-dH3jLhSEl&usp=sharing",
        "grade": "2/3",
        "guidebook_link": "https://www.ukriversguidebook.co.uk/rivers/scotland/north-east/river-findhorn-logie-bridge-to-randolphs-leap",
        "high_value": "0.8",
        "huge_value": "1.4",
        "kml": "",
        "latitude": "57.5394",
        "longitude": "-3.67493",
        "low_value": "0.3",
        "medium_value": "0.4",
        "name": "Findhorn (Middle)",
        "notes": "New Access Issue Feb 2019",
        "put_in_lat": "57.4833",
        "put_in_long": "-3.7468",
        "sca_guidebook_no": "193",
        "scrape_value": "0.2",
        "very_high_value": "1",
        "webcam": ""
    },
    {
        "access_issue": "",
        "classification": "Moderate",
        "classification_url": "https://www.sepa.org.uk/data-visualisation/water-classification-hub/?display=information_sheet&waterbodyid=10455",
        "gauge_location_code": "133123",
        "gauge_name": "Robstone",
        "get_out_lat": "55.3370",
        "get_out_long": "-4.6126",
        "google_mymaps": "https://drive.google.com/open?id=1quJvnhbluCTcharboA6Kwi2hSkypOi3f&usp=sharing",
        "grade": "3",
        "guidebook_link": "https://www.ukriversguidebook.co.uk/rivers/scotland/southern-uplands/water-of-girvan",
        "high_value": "1.5",
        "huge_value": "2.0",
        "kml": "",
        "latitude": "55.3143",
        "longitude": "-4.56207",
        "low_value": "0.75",
        "medium_value": "1.2",
        "name": "Girvan",
        "notes": "New calibrations Jan 2019.  More calibrations welcome.",
        "put_in_lat": "55.3122",
        "put_in_long": "-4.5587",
        "sca_guidebook_no": "362",
        "scrape_value": "0.6",
        "very_high_value": "1.8",
        "webcam": "https://www.farsondigitalwatercams.com/locations/dailly"
    },
    {
        "access_issue": "",
        "classification": "Poor ecological potential",
        "classification_url": "https://www.sepa.org.uk/data-visualisation/water-classification-hub/?display=information_sheet&waterbodyid=10130",
        "gauge_location_code": "133080",
        "gauge_name": "Dryfield",
        "get_out_lat": "55.8654",
        "get_out_long": "-4.3073",
        "google_mymaps": "",
        "grade": "3",
        "guidebook_link": "https://www.ukriversguidebook.co.uk/rivers/scotland/west-highlands/river-kelvin-art-galleries-wave",
        "high_value": "1",
        "huge_value": "2",
        "kml": "",
        "latitude": "55.8695",
        "longitude": "-4.28514",
        "low_value": "0.6",
        "medium_value": "0.8",
        "name": "Kelvin",
        "notes": "",
        "put_in_lat": "55.8905",
        "put_in_long": "-4.3018",
        "sca_guidebook_no": "272",
        "scrape_value": "0.5",
        "very_high_value": "1.4",
        "webcam": ""
    },
    {
        "access_issue": "http://canoescotland.org/news/middle-findhorn-fence",
        "classification": "Moderate",
        "classification_url": "https://www.sepa.org.uk/data-visualisation/water-classification-hub/?display=information_sheet&waterbodyid=23004",
        "gauge_location_code": "234306",
        "gauge_name": "Shenachie",
        "get_out_lat": "57.4833",
        "get_out_long": "-3.7468",
        "google_mymaps": "https://drive.google.com/open?id=18PxkUQKPHAZne4n7eOwBn0-dH3jLhSEl&usp=sharing",
        "grade": "3(4)",
        "guidebook_link": "https://www.ukriversguidebook.co.uk/rivers/scotland/north-east/river-findhorn-dulsie-bridge-to-logie-bridge",
        "high_value": "0.8",
        "huge_value": "1.4",
        "kml": "",
        "latitude": "57.4966",
        "longitude": "-3.73398",
        "low_value": "0.3",
        "medium_value": "0.35",
        "name": "Findhorn (Upper)",
        "notes": "New Access Issue Feb 2019",
        "put_in_lat": "57.4506",
        "put_in_long": "-3.7814",
        "sca_guidebook_no": "193",
        "scrape_value": "0.2",
        "very_high_value": "1",
        "webcam": ""
    },
    {
        "access_issue": "",
        "classification": "Moderate ecological potential",
        "classification_url": "https://www.sepa.org.uk/data-visualisation/water-classification-hub/?display=information_sheet&waterbodyid=6922",
        "gauge_location_code": "14933",
        "gauge_name": "Killin",
        "get_out_lat": "56.4831",
        "get_out_long": "-4.3639",
        "google_mymaps": "",
        "grade": "4(5)",
        "guidebook_link": "https://www.ukriversguidebook.co.uk/rivers/scotland/central-highlands/river-lochay",
        "high_value": "1.3",
        "huge_value": "2",
        "kml": "",
        "latitude": "56.494696",
        "longitude": "-4.491304",
        "low_value": "0.8",
        "medium_value": "1",
        "name": "Lochay",
        "notes": "",
        "put_in_lat": "56.4951",
        "put_in_long": "-4.4889",
        "sca_guidebook_no": "223",
        "scrape_value": "0.6",
        "very_high_value": "1.6",
        "webcam": ""
    },
    {
        "access_issue": "http://canoescotland.org/news/hazard-tree-blockage-river-avon",
        "classification": "Moderate",
        "classification_url": "https://www.sepa.org.uk/data-visualisation/water-classification-hub/?display=information_sheet&waterbodyid=10076",
        "gauge_location_code": "133084",
        "gauge_name": "Fairholm",
        "get_out_lat": "55.7895",
        "get_out_long": "-4.0217",
        "google_mymaps": "",
        "grade": "3(5)",
        "guidebook_link": "",
        "high_value": "1.1",
        "huge_value": "1.7",
        "kml": "",
        "latitude": "55.7399",
        "longitude": "-3.98838",
        "low_value": "0.6",
        "medium_value": "0.8",
        "name": "Avon (Glasgow)",
        "notes": "New calibrations Nov 2018, thanks Robin. Please fill in calibration report form to confirm or adjust.",
        "put_in_lat": "55.7039",
        "put_in_long": "-3.9892",
        "sca_guidebook_no": "270",
        "scrape_value": "0.5",
        "very_high_value": "1.5",
        "webcam": ""
    },
    {
        "access_issue": "",
        "classification": "Moderate",
        "classification_url": "https://www.sepa.org.uk/data-visualisation/water-classification-hub/?display=information_sheet&waterbodyid=10166",
        "gauge_location_code": "133089",
        "gauge_name": "Glenfalloch",
        "get_out_lat": "56.3604",
        "get_out_long": "-4.6699",
        "google_mymaps": "",
        "grade": "2-4(5)",
        "guidebook_link": "https://www.ukriversguidebook.co.uk/rivers/scotland/west-highlands/river-falloch-upper",
        "high_value": "1.6",
        "huge_value": "2.5",
        "kml": "",
        "latitude": "56.3781",
        "longitude": "-4.63383",
        "low_value": "1.1",
        "medium_value": "1.3",
        "name": "Falloch (Upper)",
        "notes": "",
        "put_in_lat": "56.3797",
        "put_in_long": "-4.6420",
        "sca_guidebook_no": "184",
        "scrape_value": "1",
        "very_high_value": "2",
        "webcam": ""
    },
    {
        "access_issue": "",
        "classification": "Good ecological potential",
        "classification_url": "https://www.sepa.org.uk/data-visualisation/water-classification-hub/?display=information_sheet&waterbodyid=20346",
        "gauge_location_code": "234178",
        "gauge_name": "Camisky",
        "get_out_lat": "56.9100",
        "get_out_long": "-4.9863",
        "google_mymaps": "https://drive.google.com/open?id=1rUrRL-8xKkuB8e1q7brhx7MK2cz3qFQe&usp=sharing",
        "grade": "4(5)",
        "guidebook_link": "https://www.ukriversguidebook.co.uk/rivers/scotland/west-highlands/river-spean-spean-bridge-to-lochy-confluence-the-spean-gorge",
        "high_value": "2.5",
        "huge_value": "4",
        "kml": "",
        "latitude": "56.8904",
        "longitude": "-4.93114",
        "low_value": "0.7",
        "medium_value": "1.6",
        "name": "Spean (Gorge)",
        "notes": "Gauge is not on this river and often does not reflect well the flow here.",
        "put_in_lat": "56.8923",
        "put_in_long": "-4.9204",
        "sca_guidebook_no": "144",
        "scrape_value": "0",
        "very_high_value": "3",
        "webcam": ""
    },
    {
        "access_issue": "http://canoescotland.org/news/hazard-river-spey-kingussie",
        "classification": "Good",
        "classification_url": "https://www.sepa.org.uk/data-visualisation/water-classification-hub/?display=information_sheet&waterbodyid=23066",
        "gauge_location_code": "234167",
        "gauge_name": "Boat o  Brig",
        "get_out_lat": "57.4579",
        "get_out_long": "-3.3503",
        "google_mymaps": "",
        "grade": "1-2",
        "guidebook_link": "https://www.ukriversguidebook.co.uk/rivers/scotland/north-east/river-spey-ballindalloch-to-tandhu-distillery",
        "high_value": "1.4",
        "huge_value": "2.7",
        "kml": "",
        "latitude": "57.4468",
        "longitude": "-3.36044",
        "low_value": "0.4",
        "medium_value": "0.8",
        "name": "Spey",
        "notes": "New access issue 07 January 2019 ",
        "put_in_lat": "57.4144",
        "put_in_long": "-3.3879",
        "sca_guidebook_no": "196",
        "scrape_value": "0",
        "very_high_value": "2",
        "webcam": "https://www.farsondigitalwatercams.com/locations/aberlour",
        "webcam_thumbnail": "https://watercams.azureedge.net/live-images/W1siZiIsImJsYWNrc2JvYXQvMjAxOS8wMS8yMS8wODo1MDowMC5qcGciXSxbInAiLCJ0aHVtYiIsIngxNTAiXV0.jpg"
    },
    {
        "access_issue": "",
        "classification": "",
        "classification_url": "",
        "gauge_location_code": "14959",
        "gauge_name": "Marble Lodge",
        "get_out_lat": "56.7742",
        "get_out_long": "-3.8432",
        "google_mymaps": "",
        "grade": "4(5)",
        "guidebook_link": "https://www.ukriversguidebook.co.uk/rivers/scotland/central-highlands/river-tilt",
        "high_value": "1",
        "huge_value": "1.5",
        "kml": "",
        "latitude": "56.7774",
        "longitude": "-3.83732",
        "low_value": "0.4",
        "medium_value": "0.6",
        "name": "Tilt (Marble Lodge)",
        "notes": "",
        "put_in_lat": "56.8246",
        "put_in_long": "-3.8023",
        "sca_guidebook_no": "214",
        "scrape_value": "0.35",
        "very_high_value": "1.2",
        "webcam": ""
    },
    {
        "access_issue": "",
        "classification": "Good",
        "classification_url": "https://www.sepa.org.uk/data-visualisation/water-classification-hub/?display=information_sheet&waterbodyid=4718",
        "gauge_location_code": "14888",
        "gauge_name": "Anie",
        "get_out_lat": "56.2464",
        "get_out_long": "-4.2477",
        "google_mymaps": "https://drive.google.com/open?id=1mVyaoPqAICBmHOkplD0R7ysSZ3UeirgC&usp=sharing",
        "grade": "3/4(5)",
        "guidebook_link": "https://www.ukriversguidebook.co.uk/rivers/scotland/central-highlands/river-leny-a84-layby-to-lade-inn",
        "high_value": "1.3",
        "huge_value": "2.0",
        "kml": "http://canoescotland.org/wheres-the-water/kml/leny.kmz",
        "latitude": "56.258",
        "longitude": "-4.2857",
        "low_value": "0.7",
        "medium_value": "1.0",
        "name": "Leny",
        "notes": "New calibrations 13 April 2019.",
        "put_in_lat": "56.2577",
        "put_in_long": "-4.2839",
        "sca_guidebook_no": "322",
        "scrape_value": "0.5",
        "very_high_value": "1.6",
        "webcam": ""
    },
    {
        "access_issue": "",
        "classification": "Good ecological potential",
        "classification_url": "https://www.sepa.org.uk/data-visualisation/water-classification-hub/?display=information_sheet&waterbodyid=10165",
        "gauge_location_code": "133089",
        "gauge_name": "Glenfalloch",
        "get_out_lat": "56.3424",
        "get_out_long": "-4.7182",
        "google_mymaps": "",
        "grade": "4/5",
        "guidebook_link": "https://www.ukriversguidebook.co.uk/rivers/scotland/west-highlands/river-falloch-falls-of-falloch-to-loch-lomond",
        "high_value": "1.2",
        "huge_value": "1.7",
        "kml": "",
        "latitude": "56.330439",
        "longitude": "-4.721314",
        "low_value": "0.9",
        "medium_value": "1",
        "name": "Falloch (Lower)",
        "notes": "",
        "put_in_lat": "56.3504",
        "put_in_long": "-4.6914",
        "sca_guidebook_no": "184",
        "scrape_value": "0.8",
        "very_high_value": "1.3",
        "webcam": ""
    },
    {
        "access_issue": "http://canoescotland.org/news/river-tay-grandtully-rapids",
        "classification": "Good",
        "classification_url": "https://www.sepa.org.uk/data-visualisation/water-classification-hub/?display=information_sheet&waterbodyid=6500",
        "gauge_location_code": "14935",
        "gauge_name": "Pitnacree",
        "get_out_lat": "56.6564",
        "get_out_long": "-3.7744",
        "google_mymaps": "https://drive.google.com/open?id=1NyCGONhCSxE-2EeOV_DU7_LTFJTzZaJR&usp=sharing",
        "grade": "2(3)",
        "guidebook_link": "https://www.ukriversguidebook.co.uk/rivers/scotland/central-highlands/river-tay-sca-access-point-to-grandtully",
        "high_value": "1.5",
        "huge_value": "3",
        "kml": "http://canoescotland.org/wheres-the-water/kml/grandtully.kmz",
        "latitude": "56.6385",
        "longitude": "-3.82874",
        "low_value": "0",
        "medium_value": "1",
        "name": "Tay (Grandtully)",
        "notes": "",
        "put_in_lat": "56.6446",
        "put_in_long": "-3.8142",
        "sca_guidebook_no": "218",
        "scrape_value": "0",
        "very_high_value": "2",
        "webcam": "https://www.farsondigitalwatercams.com/locations/grandtully",
        "webcam_thumbnail": "https://watercams.azureedge.net/live-images/W1siZiIsImdyYW5kdHVsbHkvMjAxOS8wMS8yMS8wODo1MDowMC5qcGciXSxbInAiLCJ0aHVtYiIsIngxNTAiXV0.jpg"
    },
    {
        "access_issue": "",
        "classification": "Good",
        "classification_url": "https://www.sepa.org.uk/data-visualisation/water-classification-hub/?display=information_sheet&waterbodyid=20116",
        "gauge_location_code": "234209",
        "gauge_name": "Easter Turnaig",
        "get_out_lat": "57.9655",
        "get_out_long": "-4.7254",
        "google_mymaps": "",
        "grade": "3(6)",
        "guidebook_link": "https://www.ukriversguidebook.co.uk/rivers/scotland/far-north/river-oykel",
        "high_value": "1.5",
        "huge_value": "2",
        "kml": "",
        "latitude": "57.9706",
        "longitude": "-4.73149",
        "low_value": "0.7",
        "medium_value": "0.9",
        "name": "Oykel",
        "notes": "",
        "put_in_lat": "58.0213",
        "put_in_long": "-4.8642",
        "sca_guidebook_no": "19",
        "scrape_value": "0.55",
        "very_high_value": "1.8",
        "webcam": ""
    },
    {
        "access_issue": "",
        "classification": "Moderate",
        "classification_url": "https://www.sepa.org.uk/data-visualisation/water-classification-hub/?display=information_sheet&waterbodyid=23004",
        "gauge_location_code": "234306",
        "gauge_name": "Shenachie",
        "get_out_lat": "57.4506",
        "get_out_long": "-3.7814",
        "google_mymaps": "https://drive.google.com/open?id=18PxkUQKPHAZne4n7eOwBn0-dH3jLhSEl&usp=sharing",
        "grade": "3(4)",
        "guidebook_link": "https://www.ukriversguidebook.co.uk/rivers/scotland/north-east/river-findhorn-upper-section-to-dulsie-bridge",
        "high_value": "1",
        "huge_value": "1.6",
        "kml": "",
        "latitude": "57.4501",
        "longitude": "-3.77449",
        "low_value": "0.35",
        "medium_value": "0.8",
        "name": "Findhorn (Top)",
        "notes": "",
        "put_in_lat": "57.4394",
        "put_in_long": "-3.8219",
        "sca_guidebook_no": "193",
        "scrape_value": "0.3",
        "very_high_value": "1.4",
        "webcam": ""
    },
    {
        "access_issue": "http://canoescotland.org/news/hazard-electric-fence-thurso-river-halkirk-section",
        "classification": "Good",
        "classification_url": "https://www.sepa.org.uk/data-visualisation/water-classification-hub/?display=information_sheet&waterbodyid=20637",
        "gauge_location_code": "234231",
        "gauge_name": "Halkirk",
        "get_out_lat": "58.4205",
        "get_out_long": "-3.4952",
        "google_mymaps": "",
        "grade": "2/3",
        "guidebook_link": "https://www.ukriversguidebook.co.uk/rivers/scotland/far-north/thurso-river",
        "high_value": "1",
        "huge_value": "2.5",
        "kml": "",
        "latitude": "58.5822",
        "longitude": "-3.52713",
        "low_value": "0.6",
        "medium_value": "0.8",
        "name": "Thurso",
        "notes": "",
        "put_in_lat": "58.4128",
        "put_in_long": "-3.5143",
        "sca_guidebook_no": "10",
        "scrape_value": "0.4",
        "very_high_value": "2",
        "webcam": ""
    },
    {
        "access_issue": "",
        "classification": "",
        "classification_url": "",
        "gauge_location_code": "234155",
        "gauge_name": "Ardachy Bridge",
        "get_out_lat": "57.1294",
        "get_out_long": "-4.6778",
        "google_mymaps": "",
        "grade": "5",
        "guidebook_link": "",
        "high_value": "1.2",
        "huge_value": "1.6",
        "kml": "",
        "latitude": "57.1474",
        "longitude": "-4.60276",
        "low_value": "0.9",
        "medium_value": "1.1",
        "name": "Tarff",
        "notes": "New calibrations 19 April 2019. Thanks Jack!",
        "put_in_lat": "57.0961",
        "put_in_long": "-4.6616",
        "sca_guidebook_no": "93",
        "scrape_value": "0.8",
        "very_high_value": "1.4",
        "webcam": ""
    },
    {
        "access_issue": "",
        "classification": "Good",
        "classification_url": "https://www.sepa.org.uk/data-visualisation/water-classification-hub/?display=information_sheet&waterbodyid=10758",
        "gauge_location_code": "133148",
        "gauge_name": "Canonbie",
        "get_out_lat": "55.0797",
        "get_out_long": "-2.9489",
        "google_mymaps": "https://drive.google.com/open?id=1bO01VbzW3b4MJxGb9qbCHGG6_eQ47Scx&usp=sharing",
        "grade": "3(4)",
        "guidebook_link": "https://www.ukriversguidebook.co.uk/rivers/scotland/southern-uplands/river-esk-scottish-borders",
        "high_value": "1.3",
        "huge_value": "1.9",
        "kml": "",
        "latitude": "55.1863",
        "longitude": "-3.03978",
        "low_value": "0.8",
        "medium_value": "1.1",
        "name": "Border Esk",
        "notes": "",
        "put_in_lat": "55.1524",
        "put_in_long": "-3.0016",
        "sca_guidebook_no": "316",
        "scrape_value": "0.6",
        "very_high_value": "1.7",
        "webcam": ""
    },
    {
        "access_issue": "",
        "classification": "",
        "classification_url": "",
        "gauge_location_code": "133154",
        "gauge_name": "Drumlanrig",
        "get_out_lat": "55.2795",
        "get_out_long": "-3.7974",
        "google_mymaps": "https://drive.google.com/open?id=1kOaDSBkAx0v7JSUmm-Ly4h-8JG0Bli5i&usp=sharing",
        "grade": "3/4",
        "guidebook_link": "https://www.ukriversguidebook.co.uk/rivers/scotland/southern-uplands/river-nith-glen-airlie-picnic-site-to-drumlanrig-bridge",
        "high_value": "1.2",
        "huge_value": "1.8",
        "kml": "",
        "latitude": "55.3489",
        "longitude": "-3.88161",
        "low_value": "0.45",
        "medium_value": "1",
        "name": "Nith (Drumlanrig)",
        "notes": "Access issue updated Jan 2019. Low was 0.65 now 0.45, Jan 2019.",
        "put_in_lat": "55.3307",
        "put_in_long": "-3.8382",
        "sca_guidebook_no": "287",
        "scrape_value": "0.4",
        "very_high_value": "1.5",
        "webcam": "https://www.farsondigitalwatercams.com/locations/auldgirth",
        "webcam_thumbnail": "https://watercams.azureedge.net/live-images/W1siZiIsIm5pdGgvMjAxOS8wMS8yMS8wODo1MDowMC5qcGciXSxbInAiLCJ0aHVtYiIsIngxNTAiXV0.jpg"
    },
    {
        "access_issue": "http://canoescotland.org/news/middle-averon-wires",
        "classification": "",
        "classification_url": "",
        "gauge_location_code": "234152",
        "gauge_name": "Alness",
        "get_out_lat": "57.6969",
        "get_out_long": "-4.2584",
        "google_mymaps": "",
        "grade": "3/4",
        "guidebook_link": "https://www.ukriversguidebook.co.uk/rivers/scotland/far-north/river-averon",
        "high_value": "1.4",
        "huge_value": "2",
        "kml": "",
        "latitude": "57.7018",
        "longitude": "-4.27574",
        "low_value": "0.8",
        "medium_value": "1.1",
        "name": "Averon of Alness",
        "notes": "Access issue updated 11th March 2019",
        "put_in_lat": "57.7333",
        "put_in_long": "-4.3982",
        "sca_guidebook_no": "50",
        "scrape_value": "0.7",
        "very_high_value": "1.7",
        "webcam": ""
    },
    {
        "access_issue": "",
        "classification": "Good",
        "classification_url": "https://www.sepa.org.uk/data-visualisation/water-classification-hub/?display=information_sheet&waterbodyid=20733",
        "gauge_location_code": "234313",
        "gauge_name": "Skeabost",
        "get_out_lat": "57.4527",
        "get_out_long": "-6.3040",
        "google_mymaps": "https://drive.google.com/open?id=1EbvYVqguikPsr1gaT4hOSqvfm4GxqOr2&usp=sharing",
        "grade": "3/4",
        "guidebook_link": "",
        "high_value": "1",
        "huge_value": "1.3",
        "kml": "",
        "latitude": "57.4124",
        "longitude": "-6.29448",
        "low_value": "0.5",
        "medium_value": "0.9",
        "name": "Snizort",
        "notes": "Guidebook says 1.25 needed on gauge but bank inspection at 0.8 looked low but paddleable at start (<a href='https://www.flickr.com/photos/jriddell/45672778625/'>photo</a>). More calibrations welcome.",
        "put_in_lat": "57.4155",
        "put_in_long": "-6.2965",
        "sca_guidebook_no": "72",
        "scrape_value": "0.3",
        "very_high_value": "1.1",
        "webcam": ""
    },
    {
        "access_issue": "http://canoescotland.org/news/bridge-closure-blackwater-netherton-dec-1-31",
        "classification": "Moderate",
        "classification_url": "https://www.sepa.org.uk/data-visualisation/water-classification-hub/?display=information_sheet&waterbodyid=6540",
        "gauge_location_code": "14956",
        "gauge_name": "Craighall (Perth)",
        "get_out_lat": "56.5626",
        "get_out_long": "-3.3973",
        "google_mymaps": "",
        "grade": "4",
        "guidebook_link": "https://www.ukriversguidebook.co.uk/rivers/scotland/north-east/river-blackwater",
        "high_value": "1.2",
        "huge_value": "1.7",
        "kml": "",
        "latitude": "56.6572",
        "longitude": "-3.4007",
        "low_value": "0.8",
        "medium_value": "0.9",
        "name": "Blackwater (Perthshire)",
        "notes": "",
        "put_in_lat": "56.6965",
        "put_in_long": "-3.4092",
        "sca_guidebook_no": "250",
        "scrape_value": "0.75",
        "very_high_value": "1.4",
        "webcam": ""
    },
    {
        "access_issue": "",
        "classification": "",
        "classification_url": "",
        "gauge_location_code": "502896",
        "gauge_name": "Wheeb Bridge",
        "get_out_lat": "55.0545",
        "get_out_long": "-4.5862",
        "google_mymaps": "",
        "grade": "4(5)",
        "guidebook_link": "https://www.ukriversguidebook.co.uk/rivers/scotland/southern-uplands/river-cree",
        "high_value": "1.0",
        "huge_value": "1.2",
        "kml": "",
        "latitude": "55.0717",
        "longitude": "-4.63554",
        "low_value": "0.8",
        "medium_value": "0.9",
        "name": "Cree",
        "notes": "",
        "put_in_lat": "55.0897",
        "put_in_long": "-4.6621",
        "sca_guidebook_no": "298",
        "scrape_value": "0.6",
        "very_high_value": "1.1",
        "webcam": ""
    },
    {
        "access_issue": "",
        "classification": "Good ecological potential",
        "classification_url": "https://www.sepa.org.uk/data-visualisation/water-classification-hub/?display=information_sheet&waterbodyid=20329",
        "gauge_location_code": "116011",
        "gauge_name": "Claggan",
        "get_out_lat": "56.7703",
        "get_out_long": "-5.0376",
        "google_mymaps": "",
        "grade": "4(5)",
        "guidebook_link": "https://www.ukriversguidebook.co.uk/rivers/scotland/west-highlands/river-nevis-steall-gorge-to-polldubh-falls",
        "high_value": "1",
        "huge_value": "1.6",
        "kml": "",
        "latitude": "56.7758",
        "longitude": "-5.00161",
        "low_value": "0.65",
        "medium_value": "0.85",
        "name": "Nevis (Upper)",
        "notes": "",
        "put_in_lat": "56.7784",
        "put_in_long": "-4.9917",
        "sca_guidebook_no": "110",
        "scrape_value": "0.5",
        "very_high_value": "1.3",
        "webcam": ""
    },
    {
        "access_issue": "",
        "classification": "Moderate",
        "classification_url": "https://www.sepa.org.uk/data-visualisation/water-classification-hub/?display=information_sheet&waterbodyid=10286",
        "gauge_location_code": "133097",
        "gauge_name": "Inverlochy",
        "get_out_lat": "56.4060",
        "get_out_long": "-4.9252",
        "google_mymaps": "",
        "grade": "5",
        "guidebook_link": "https://www.ukriversguidebook.co.uk/rivers/scotland/west-highlands/river-lochy-tyndrum",
        "high_value": "1.3",
        "huge_value": "2",
        "kml": "",
        "latitude": "56.4402",
        "longitude": "-4.79012",
        "low_value": "0.8",
        "medium_value": "1",
        "name": "Lochy (nr Orchy)",
        "notes": "",
        "put_in_lat": "56.4037",
        "put_in_long": "-4.8732",
        "sca_guidebook_no": "180",
        "scrape_value": "0.5",
        "very_high_value": "1.5",
        "webcam": ""
    },
    {
        "access_issue": "http://canoescotland.org/news/clyde-crossford",
        "classification": "Good",
        "classification_url": "https://www.sepa.org.uk/data-visualisation/water-classification-hub/?display=information_sheet&waterbodyid=10919",
        "gauge_location_code": "133094",
        "gauge_name": "Hazelbank",
        "get_out_lat": "55.7007",
        "get_out_long": "-3.8674",
        "google_mymaps": "https://drive.google.com/open?id=1J8FELMrZrK2531CXsh7Fldyr6XZDy0kC&usp=sharing",
        "grade": "2/3",
        "guidebook_link": "https://www.ukriversguidebook.co.uk/rivers/scotland/southern-uplands/clyde-stonebyres-to-crossford",
        "high_value": "1.6",
        "huge_value": "2.2",
        "kml": "http://canoescotland.org/wheres-the-water/kml/clyde-stonebyres.kmz",
        "latitude": "55.678",
        "longitude": "-3.83818",
        "low_value": "0.5",
        "medium_value": "0.8",
        "name": "Clyde (Stonebyres)",
        "notes": "Crossford to Hazelbank calibration.  New calibrations from Robin April 2018, please fill in calibrations form to confirm or adjust.",
        "put_in_lat": "55.6775",
        "put_in_long": "-3.8401",
        "sca_guidebook_no": "268",
        "scrape_value": "0",
        "very_high_value": "2",
        "webcam": "https://www.farsondigitalwatercams.com/locations/crossford",
        "webcam_thumbnail": "https://watercams.azureedge.net/live-images/W1siZiIsImNseWRlLzIwMTkvMDEvMjEvMDg6NTA6MDAuanBnIl0sWyJwIiwidGh1bWIiLCJ4MTUwIl1d.jpg"
    },
    {
        "access_issue": "",
        "classification": "Moderate",
        "classification_url": "https://www.sepa.org.uk/data-visualisation/water-classification-hub/?display=information_sheet&waterbodyid=10160",
        "gauge_location_code": "133108",
        "gauge_name": "Luss",
        "get_out_lat": "56.0976",
        "get_out_long": "-4.6413",
        "google_mymaps": "",
        "grade": "4(4+)",
        "guidebook_link": "https://www.ukriversguidebook.co.uk/rivers/scotland/west-highlands/river-luss",
        "high_value": "0.9",
        "huge_value": "1.2",
        "kml": "",
        "latitude": "56.1014",
        "longitude": "-4.64747",
        "low_value": "0.5",
        "medium_value": "0.7",
        "name": "Luss Water",
        "notes": "",
        "put_in_lat": "56.1121",
        "put_in_long": "-4.6858",
        "sca_guidebook_no": "192",
        "scrape_value": "0.4",
        "very_high_value": "1",
        "webcam": ""
    },
    {
        "access_issue": "",
        "classification": "Good",
        "classification_url": "https://www.sepa.org.uk/data-visualisation/water-classification-hub/?display=information_sheet&waterbodyid=20002",
        "gauge_location_code": "234253",
        "gauge_name": "Kilphedir",
        "get_out_lat": "58.1541",
        "get_out_long": "-3.8284",
        "google_mymaps": "",
        "grade": "3/4(4+)",
        "guidebook_link": "",
        "high_value": "1.5",
        "huge_value": "2.5",
        "kml": "",
        "latitude": "58.158",
        "longitude": "-3.84727",
        "low_value": "1",
        "medium_value": "1.2",
        "name": "Helmsdale",
        "notes": "",
        "put_in_lat": "58.2019",
        "put_in_long": "-3.8939",
        "sca_guidebook_no": "7",
        "scrape_value": "0.9",
        "very_high_value": "2",
        "webcam": ""
    },
    {
        "access_issue": "",
        "classification": "Moderate",
        "classification_url": "https://www.sepa.org.uk/data-visualisation/water-classification-hub/?display=information_sheet&waterbodyid=23129",
        "gauge_location_code": "234217",
        "gauge_name": "Feshie Bridge",
        "get_out_lat": "57.1182",
        "get_out_long": "-3.9018",
        "google_mymaps": "https://drive.google.com/open?id=17kIXA7rrADj0iFSBFh9-AzOEDc_DlHQr&usp=sharing",
        "grade": "3(3+)",
        "guidebook_link": "https://www.ukriversguidebook.co.uk/rivers/scotland/north-east/river-feshie",
        "high_value": "1.3",
        "huge_value": "2.5",
        "kml": "",
        "latitude": "57.1111",
        "longitude": "-3.89517",
        "low_value": "0.5",
        "medium_value": "1",
        "name": "Feshie",
        "notes": "",
        "put_in_lat": "57.0631",
        "put_in_long": "-3.8969",
        "sca_guidebook_no": "203",
        "scrape_value": "0.4",
        "very_high_value": "1.7",
        "webcam": ""
    },
    {
        "access_issue": "",
        "classification": "",
        "classification_url": "",
        "gauge_location_code": "371579",
        "gauge_name": "Inveriscandye",
        "get_out_lat": "56.8931",
        "get_out_long": "-2.8727",
        "google_mymaps": "https://drive.google.com/open?id=1ksoUeNPrTjXDickP0idcLMYmsXnDUuFT&usp=sharing",
        "grade": "4/4+",
        "guidebook_link": "https://www.ukriversguidebook.co.uk/rivers/scotland/north-east/river-north-esk-tribs-to-dalbrack-bridge",
        "high_value": "1.3",
        "huge_value": "1.9",
        "kml": "",
        "latitude": "56.8996",
        "longitude": "-2.87979",
        "low_value": "0.35",
        "medium_value": "1.0",
        "name": "North Esk (Upper)",
        "notes": "New Inveriscandye gauge Feb 2019, please send more calibrations.",
        "put_in_lat": "56.9103",
        "put_in_long": "-2.9271",
        "sca_guidebook_no": "244",
        "scrape_value": "0.30",
        "very_high_value": "1.5",
        "webcam": ""
    },
    {
        "access_issue": "",
        "classification": "Good",
        "classification_url": "https://www.sepa.org.uk/data-visualisation/water-classification-hub/?display=information_sheet&waterbodyid=20455",
        "gauge_location_code": "234289",
        "gauge_name": "New Kelso",
        "get_out_lat": "57.4918",
        "get_out_long": "-5.2587",
        "google_mymaps": "",
        "grade": "4+",
        "guidebook_link": "",
        "high_value": "1.4",
        "huge_value": "1.55",
        "kml": "",
        "latitude": "57.4778",
        "longitude": "-5.32631",
        "low_value": "1.3",
        "medium_value": "1.35",
        "name": "Carron (Wester Ross)",
        "notes": "New calibrations Nov 2018, thanks Chris and Gavin",
        "put_in_lat": "57.5174",
        "put_in_long": "-5.2044",
        "sca_guidebook_no": "58",
        "scrape_value": "1.2",
        "very_high_value": "1.5",
        "webcam": ""
    },
    {
        "access_issue": "",
        "classification": "",
        "classification_url": "",
        "gauge_location_code": "8402",
        "gauge_name": "Hermitage",
        "get_out_lat": "56.5365",
        "get_out_long": "-3.6946",
        "google_mymaps": "https://drive.google.com/open?id=1gIXTCFC7nDLgiQAiAp81cTvLdkN59sMZ&usp=sharing",
        "grade": "2-4",
        "guidebook_link": "https://www.ukriversguidebook.co.uk/rivers/scotland/central-highlands/river-braan-upper-section-to-rumbling-bridge",
        "high_value": "1.3",
        "huge_value": "1.7",
        "kml": "",
        "latitude": "56.5148",
        "longitude": "-3.77174",
        "low_value": "0.9",
        "medium_value": "1.1",
        "name": "Braan (Upper)",
        "notes": "",
        "put_in_lat": "56.5101",
        "put_in_long": "-3.7879",
        "sca_guidebook_no": "228",
        "scrape_value": "0.8",
        "very_high_value": "1.5",
        "webcam": ""
    },
    {
        "access_issue": "",
        "classification": "",
        "classification_url": "",
        "gauge_location_code": "234178",
        "gauge_name": "Camisky",
        "get_out_lat": "56.8327",
        "get_out_long": "-5.0809",
        "google_mymaps": "",
        "grade": "1 (2/3)",
        "guidebook_link": "",
        "high_value": "1.4",
        "huge_value": "3",
        "kml": "",
        "latitude": "56.8892",
        "longitude": "-5.03629",
        "low_value": "0.6",
        "medium_value": "0.9",
        "name": "Lochy (Fort William)",
        "notes": "",
        "put_in_lat": "56.9109",
        "put_in_long": "-4.9968",
        "sca_guidebook_no": "107",
        "scrape_value": "0",
        "very_high_value": "2.4",
        "webcam": ""
    },
    {
        "access_issue": "",
        "classification": "",
        "classification_url": "",
        "gauge_location_code": "234153",
        "gauge_name": "Apigill",
        "get_out_lat": "58.5261",
        "get_out_long": "-4.2337",
        "google_mymaps": "",
        "grade": "2",
        "guidebook_link": "",
        "high_value": "0.7",
        "huge_value": "1",
        "kml": "",
        "latitude": "58.4362",
        "longitude": "-4.19266",
        "low_value": "0.5",
        "medium_value": "0.6",
        "name": "Naver",
        "notes": "",
        "put_in_lat": "58.3355",
        "put_in_long": "-4.253",
        "sca_guidebook_no": "13",
        "scrape_value": "0.4",
        "very_high_value": "0.8",
        "webcam": ""
    },
    {
        "access_issue": "",
        "classification": "",
        "classification_url": "",
        "gauge_location_code": "14887",
        "gauge_name": "Bridge of Teith",
        "get_out_lat": "56.2418",
        "get_out_long": "-4.1482",
        "google_mymaps": "https://drive.google.com/open?id=1ERN7VTJIDuoXAmzK7Ctr2DVjAXgopfiG&usp=sharing",
        "grade": "2",
        "guidebook_link": "https://www.ukriversguidebook.co.uk/rivers/scotland/central-highlands/river-teith",
        "high_value": "1.5",
        "huge_value": "3",
        "kml": "http://canoescotland.org/wheres-the-water/kml/teith.kmz",
        "latitude": "56.1903",
        "longitude": "-4.08485",
        "low_value": "0.5",
        "medium_value": "0.8",
        "name": "Teith",
        "notes": "",
        "put_in_lat": "56.2442",
        "put_in_long": "-4.2190",
        "sca_guidebook_no": "259",
        "scrape_value": "0",
        "very_high_value": "2",
        "webcam": "https://www.farsondigitalwatercams.com/locations/callander",
        "webcam_thumbnail": "https://watercams.azureedge.net/live-images/W1siZiIsInRlaXRoX2NhbGxhbmRlci8yMDE5LzAxLzIxLzA4OjUwOjAwLmpwZyJdLFsicCIsInRodW1iIiwieDE1MCJdXQ.jpg"
    },
    {
        "access_issue": "http://canoescotland.org/news/glen-orchy-bailey-bridge-works-and-tree-felling",
        "classification": "Moderate",
        "classification_url": "https://www.sepa.org.uk/data-visualisation/water-classification-hub/?display=information_sheet&waterbodyid=10285",
        "gauge_location_code": "133087",
        "gauge_name": "Glen Orchy",
        "get_out_lat": "56.4529",
        "get_out_long": "-4.8482",
        "google_mymaps": "https://drive.google.com/open?id=1i64desUTuyjWXxwc-gpANxGz2pQJeGIZ&usp=sharing",
        "grade": "3-5",
        "guidebook_link": "https://www.ukriversguidebook.co.uk/rivers/scotland/west-highlands/river-orchy-bridge-of-orchy-to-falls-of-orchy",
        "high_value": "1.1",
        "huge_value": "2",
        "kml": "http://canoescotland.org/wheres-the-water/kml/orchy.kmz",
        "latitude": "56.5176",
        "longitude": "-4.7709",
        "low_value": "0.6",
        "medium_value": "0.8",
        "name": "Orchy (Middle)",
        "notes": "",
        "put_in_lat": "56.5178",
        "put_in_long": "-4.7701",
        "sca_guidebook_no": "178",
        "scrape_value": "0.5",
        "very_high_value": "1.5",
        "webcam": ""
    },
    {
        "access_issue": "",
        "classification": "Moderate",
        "classification_url": "https://www.sepa.org.uk/data-visualisation/water-classification-hub/?display=information_sheet&waterbodyid=10528",
        "gauge_location_code": "133168",
        "gauge_name": "Minnoch Bridge",
        "get_out_lat": "55.0408",
        "get_out_long": "-4.5644",
        "google_mymaps": "",
        "grade": "5",
        "guidebook_link": "https://www.ukriversguidebook.co.uk/rivers/scotland/southern-uplands/water-of-minnoch-palgowan-bridge-to-stroan-bridge",
        "high_value": "1.8",
        "huge_value": "2.5",
        "kml": "",
        "latitude": "55.1122",
        "longitude": "-4.55675",
        "low_value": "1.3",
        "medium_value": "1.5",
        "name": "Water of Minnoch (Middle)",
        "notes": "New calibratons 13 April 2019",
        "put_in_lat": "55.1469",
        "put_in_long": "-4.5768",
        "sca_guidebook_no": "299",
        "scrape_value": "1.0",
        "very_high_value": "2.0",
        "webcam": ""
    },
    {
        "access_issue": "",
        "classification": "Good ecological potential",
        "classification_url": "https://www.sepa.org.uk/data-visualisation/water-classification-hub/?display=information_sheet&waterbodyid=20130",
        "gauge_location_code": "234305",
        "gauge_name": "Sgodachail",
        "get_out_lat": "57.886",
        "get_out_long": "-4.3876",
        "google_mymaps": "",
        "grade": "4 (4+)",
        "guidebook_link": "https://www.ukriversguidebook.co.uk/rivers/scotland/far-north/river-carron",
        "high_value": "1.5",
        "huge_value": "2",
        "kml": "",
        "latitude": "57.8911",
        "longitude": "-4.54971",
        "low_value": "0.8",
        "medium_value": "1",
        "name": "Carron (Easter Ross)",
        "notes": "",
        "put_in_lat": "57.8857",
        "put_in_long": "-4.4309",
        "sca_guidebook_no": "28",
        "scrape_value": "0.7",
        "very_high_value": "1.8",
        "webcam": ""
    },
    {
        "access_issue": "http://canoescotland.org/news/river-dee-caution",
        "classification": "Moderate",
        "classification_url": "https://www.sepa.org.uk/data-visualisation/water-classification-hub/?display=information_sheet&waterbodyid=23332",
        "gauge_location_code": "234294",
        "gauge_name": "Polhollick",
        "get_out_lat": "57.0477",
        "get_out_long": "-2.5005",
        "google_mymaps": "",
        "grade": "2(3)",
        "guidebook_link": "https://www.ukriversguidebook.co.uk/rivers/scotland/north-east/river-dee-potarch-to-banchory",
        "high_value": "1.5",
        "huge_value": "2.5",
        "kml": "",
        "latitude": "57.0652",
        "longitude": "-2.6485",
        "low_value": "0.5",
        "medium_value": "1",
        "name": "Dee (Grampian) (Middle)",
        "notes": "Uses gauge upstream of Bridge of Gairn, may be better to change to Woodend gauge which is closer",
        "put_in_lat": "57.0652",
        "put_in_long": "-2.6485",
        "sca_guidebook_no": "240",
        "scrape_value": "0",
        "very_high_value": "2",
        "webcam": "https://www.farsondigitalwatercams.com/locations/potarch-bridge"
    },
    {
        "access_issue": "",
        "classification": "Good ecological potential",
        "classification_url": "https://www.sepa.org.uk/data-visualisation/water-classification-hub/?display=information_sheet&waterbodyid=6639",
        "gauge_location_code": "14951",
        "gauge_name": "Comrie Bridge",
        "get_out_lat": "56.5942",
        "get_out_long": "-4.0720",
        "google_mymaps": "",
        "grade": "3-4(5)",
        "guidebook_link": "https://www.ukriversguidebook.co.uk/rivers/scotland/central-highlands/river-lyon",
        "high_value": "1",
        "huge_value": "1.8",
        "kml": "",
        "latitude": "56.5981",
        "longitude": "-4.11644",
        "low_value": "0.5",
        "medium_value": "0.6",
        "name": "Lyon",
        "notes": "Low changed from 0.4 to 0.5 as reported scrape at 0.49, Jan 2019.",
        "put_in_lat": "56.5989",
        "put_in_long": "-4.1189",
        "sca_guidebook_no": "220",
        "scrape_value": "0.2",
        "very_high_value": "1.4",
        "webcam": ""
    },
    {
        "access_issue": "",
        "classification": "Moderate ecological potential",
        "classification_url": "https://www.sepa.org.uk/data-visualisation/water-classification-hub/?display=information_sheet&waterbodyid=6502",
        "gauge_location_code": "14933",
        "gauge_name": "Killin",
        "get_out_lat": "56.4649",
        "get_out_long": "-4.3159",
        "google_mymaps": "https://drive.google.com/open?id=1gUwotl2KhJWLXdT0mW1LO8eHCXpDZMsF&usp=sharing",
        "grade": "4",
        "guidebook_link": "https://www.ukriversguidebook.co.uk/rivers/scotland/central-highlands/river-dochart-falls-of-dochart",
        "high_value": "0.8",
        "huge_value": "1.2",
        "kml": "http://canoescotland.org/wheres-the-water/kml/dochart.kmz",
        "latitude": "56.466841",
        "longitude": "-4.312733",
        "low_value": "0.5",
        "medium_value": "0.6",
        "name": "Dochart",
        "notes": "",
        "put_in_lat": "56.4609",
        "put_in_long": "-4.3229",
        "sca_guidebook_no": "224",
        "scrape_value": "0.4",
        "very_high_value": "1",
        "webcam": ""
    },
    {
        "access_issue": "http://canoescotland.org/news/access-issue-got-ericht",
        "classification": "Moderate",
        "classification_url": "https://www.sepa.org.uk/data-visualisation/water-classification-hub/?display=information_sheet&waterbodyid=6535",
        "gauge_location_code": "14956",
        "gauge_name": "Craighall (Perth)",
        "get_out_lat": "56.6006",
        "get_out_long": "-3.3418",
        "google_mymaps": "",
        "grade": "2/3(5)",
        "guidebook_link": "https://www.ukriversguidebook.co.uk/rivers/scotland/central-highlands/river-ericht",
        "high_value": "1.2",
        "huge_value": "1.7",
        "kml": "",
        "latitude": "56.5999",
        "longitude": "-3.33564",
        "low_value": "0.8",
        "medium_value": "1",
        "name": "Ericht (Blairgowrie)",
        "notes": "",
        "put_in_lat": "56.6189",
        "put_in_long": "-3.3467",
        "sca_guidebook_no": "251",
        "scrape_value": "0.6",
        "very_high_value": "1.4",
        "webcam": "https://www.farsondigitalwatercams.com/locations/blairgowrie",
        "webcam_thumbnail": "https://watercams.azureedge.net/live-images/W1siZiIsImVyaWNodC8yMDE5LzAxLzIxLzA4OjUwOjAwLmpwZyJdLFsicCIsInRodW1iIiwieDE1MCJdXQ.jpg"
    },
    {
        "access_issue": "",
        "classification": "Good",
        "classification_url": "https://www.sepa.org.uk/data-visualisation/water-classification-hub/?display=information_sheet&waterbodyid=6576",
        "gauge_location_code": "8402",
        "gauge_name": "Hermitage",
        "get_out_lat": "56.5613",
        "get_out_long": "-3.6153",
        "google_mymaps": "https://drive.google.com/open?id=1gIXTCFC7nDLgiQAiAp81cTvLdkN59sMZ&usp=sharing",
        "grade": "4/5",
        "guidebook_link": "https://www.ukriversguidebook.co.uk/rivers/scotland/central-highlands/river-braan-rumbling-bridge-to-the-hermitage",
        "high_value": "0.9",
        "huge_value": "1.3",
        "kml": "",
        "latitude": "56.561",
        "longitude": "-3.60798",
        "low_value": "0.6",
        "medium_value": "0.7",
        "name": "Braan (Gorge)",
        "notes": "",
        "put_in_lat": "56.5509",
        "put_in_long": "-3.6336",
        "sca_guidebook_no": "228",
        "scrape_value": "0.5",
        "very_high_value": "1.15",
        "webcam": ""
    },
    {
        "access_issue": "",
        "classification": "Good",
        "classification_url": "https://www.sepa.org.uk/data-visualisation/water-classification-hub/?display=information_sheet&waterbodyid=23351",
        "gauge_location_code": "234247",
        "gauge_name": "Invermuick",
        "get_out_lat": "57.0233",
        "get_out_long": "-3.0732",
        "google_mymaps": "",
        "grade": "3+ (5)",
        "guidebook_link": "https://www.ukriversguidebook.co.uk/rivers/scotland/north-east/river-muick-falls-of-muick",
        "high_value": "1",
        "huge_value": "1.5",
        "kml": "",
        "latitude": "56.9871",
        "longitude": "-3.1083",
        "low_value": "0.5",
        "medium_value": "0.7",
        "name": "Muick",
        "notes": "",
        "put_in_lat": "56.9871",
        "put_in_long": "-3.1083",
        "sca_guidebook_no": "238",
        "scrape_value": "0.4",
        "very_high_value": "1.2",
        "webcam": "https://www.farsondigitalwatercams.com/locations/ballater",
        "webcam_thumbnail": "https://watercams.azureedge.net/live-images/W1siZiIsImRlZV9iYWxsYXRlci8yMDE5LzAxLzIxLzA4OjUwOjAwLmpwZyJdLFsicCIsInRodW1iIiwieDE1MCJdXQ.jpg"
    },
    {
        "access_issue": "",
        "classification": "Poor",
        "classification_url": "https://www.sepa.org.uk/data-visualisation/water-classification-hub/?display=information_sheet&waterbodyid=3001",
        "gauge_location_code": "14869",
        "gauge_name": "Almondell",
        "get_out_lat": "55.9395",
        "get_out_long": "-3.4116",
        "google_mymaps": "",
        "grade": "2 (3)",
        "guidebook_link": "https://www.ukriversguidebook.co.uk/rivers/scotland/southern-uplands/river-almond-edinburgh",
        "high_value": "1",
        "huge_value": "1.4",
        "kml": "",
        "latitude": "55.901805",
        "longitude": "-3.4633852",
        "low_value": "0.6",
        "medium_value": "0.8",
        "name": "Almond (Lothian)",
        "notes": "",
        "put_in_lat": "55.8945",
        "put_in_long": "-3.4776",
        "sca_guidebook_no": "265",
        "scrape_value": "0.5",
        "very_high_value": "1.2",
        "webcam": "https://www.farsondigitalwatercams.com/locations/livingston",
        "webcam_thumbnail": "https://watercams.azureedge.net/live-images/W1siZiIsImFsbW9uZF9raXJrdG9ud2Vpcl9saXZpbmdzdG9uZS8yMDE5LzAxLzIxLzA4OjUwOjAwLmpwZyJdLFsicCIsInRodW1iIiwieDE1MCJdXQ.jpg"
    },
    {
        "access_issue": "http://canoescotland.org/news/river-tay-tree-hazard",
        "classification": "Good",
        "classification_url": "https://www.sepa.org.uk/data-visualisation/water-classification-hub/?display=information_sheet&waterbodyid=6501",
        "gauge_location_code": "8295",
        "gauge_name": "Kenmore",
        "get_out_lat": "56.620153",
        "get_out_long": "-3.873551",
        "google_mymaps": "",
        "grade": "1-2",
        "guidebook_link": "",
        "high_value": "1.0",
        "huge_value": "2.0",
        "kml": "",
        "latitude": "56.596388",
        "longitude": "-3.9850618",
        "low_value": "0.5",
        "medium_value": "0.7",
        "name": "Tay (Kenmore)",
        "notes": "New access issue 13 Feb 2019",
        "put_in_lat": "56.583472",
        "put_in_long": "-3.996751",
        "sca_guidebook_no": "218",
        "scrape_value": "0.3",
        "very_high_value": "1.5",
        "webcam": "https://www.farsondigitalwatercams.com/locations/taymouth",
        "webcam_thumbnail": "https://watercams.azureedge.net/live-images/W1siZiIsImxvY2hfdGF5LzIwMTkvMDEvMjEvMDg6NTA6MDAuanBnIl0sWyJwIiwidGh1bWIiLCJ4MTUwIl1d.jpg"
    },
    {
        "access_issue": "",
        "classification": "Good",
        "classification_url": "https://www.sepa.org.uk/data-visualisation/water-classification-hub/?display=information_sheet&waterbodyid=5203",
        "gauge_location_code": "14979",
        "gauge_name": "Peebles",
        "get_out_lat": "55.584",
        "get_out_long": "-2.860",
        "google_mymaps": "https://drive.google.com/open?id=1TfqoftceHblbyeimd0HgvATx3ouL5H1K&usp=sharing",
        "grade": "1-2",
        "guidebook_link": "https://www.ukriversguidebook.co.uk/rivers/scotland/southern-uplands/river-tweed-peel-to-fairnilee-farm",
        "high_value": "10",
        "huge_value": "10",
        "kml": "http://canoescotland.org/wheres-the-water/kml/fairnilee.kmz",
        "latitude": "55.5838",
        "longitude": "-2.8605",
        "low_value": "10",
        "medium_value": "10",
        "name": "Tweed (Fairnilee)",
        "notes": "Please send calibrations for this Peebles gauge as relevant for Fairnilee",
        "put_in_lat": "55.605646",
        "put_in_long": "-2.896935",
        "sca_guidebook_no": "306",
        "scrape_value": "10",
        "very_high_value": "10",
        "webcam": "https://www.farsondigitalwatercams.com/locations/traquair",
        "webcam_thumbnail": "https://watercams.azureedge.net/live-images/W1siZiIsInR3ZWVkX3RyYXF1YWlyLzIwMTkvMDEvMjEvMDg6NTA6MDAuanBnIl0sWyJwIiwidGh1bWIiLCJ4MTUwIl1d.jpg"
    },
    {
        "access_issue": "http://canoescotland.org/news/south-esk-blockage",
        "classification": "Good",
        "classification_url": "https://www.sepa.org.uk/data-visualisation/water-classification-hub/?display=information_sheet&waterbodyid=5800",
        "gauge_location_code": "14916",
        "gauge_name": "Gella Bridge",
        "get_out_lat": "56.7256",
        "get_out_long": "-2.9895",
        "google_mymaps": "",
        "grade": "2/3(4)",
        "guidebook_link": "https://www.ukriversguidebook.co.uk/rivers/scotland/north-east/south-esk",
        "high_value": "1.4",
        "huge_value": "1.8",
        "kml": "",
        "latitude": "56.775358",
        "longitude": "-3.0279293",
        "low_value": "0.8",
        "medium_value": "1.0",
        "name": "South Esk (Angus)",
        "notes": "Calibration adjusted Nov 2018, medium 0.9 &#8594; 1.0.  Thanks Jon. Webcam downstream at Finavon,",
        "put_in_lat": "56.7749",
        "put_in_long": "-3.0279",
        "sca_guidebook_no": "247",
        "scrape_value": "0.7",
        "very_high_value": "1.6",
        "webcam": "https://www.farsondigitalwatercams.com/locations/finavon-castle"
    },
    {
        "access_issue": "",
        "classification": "",
        "classification_url": "",
        "gauge_location_code": "234292",
        "gauge_name": "Parkhill",
        "get_out_lat": "57.1727",
        "get_out_long": "-2.1058",
        "google_mymaps": "",
        "grade": "2-3",
        "guidebook_link": "",
        "high_value": "1.8",
        "huge_value": "2.4",
        "kml": "",
        "latitude": "57.218321",
        "longitude": "-2.1875865",
        "low_value": "1",
        "medium_value": "1.4",
        "name": "Don",
        "notes": "",
        "put_in_lat": "57.1978",
        "put_in_long": "-2.1721",
        "sca_guidebook_no": "243",
        "scrape_value": "0",
        "very_high_value": "2",
        "webcam": "https://www.farsondigitalwatercams.com/locations/kintore",
        "webcam_thumbnail": "https://watercams.azureedge.net/live-images/W1siZiIsImRvbl9raW50b3JlLzIwMTkvMDEvMjEvMDg6NTA6MDAuanBnIl0sWyJwIiwidGh1bWIiLCJ4MTUwIl1d.jpg"
    },
    {
        "access_issue": "",
        "classification": "",
        "classification_url": "",
        "gauge_location_code": "14965",
        "gauge_name": "Cultybraggan",
        "get_out_lat": "56.3741",
        "get_out_long": "-3.9266",
        "google_mymaps": "https://drive.google.com/open?id=1TA1ug_0y17_DXc87La-vDOiob4Ak7xLJ&usp=sharing",
        "grade": "3(4+)",
        "guidebook_link": "https://www.ukriversguidebook.co.uk/rivers/scotland/central-highlands/water-of-ruchill",
        "high_value": "1.7",
        "huge_value": "2.5",
        "kml": "",
        "latitude": "56.319482",
        "longitude": "-4.0854982",
        "low_value": "1.1",
        "medium_value": "1.4",
        "name": "Water of Ruchill",
        "notes": "",
        "put_in_lat": "56.3201",
        "put_in_long": "-4.0843",
        "sca_guidebook_no": "255",
        "scrape_value": "0.9",
        "very_high_value": "2",
        "webcam": ""
    },
    {
        "access_issue": "",
        "classification": "Moderate",
        "classification_url": "https://www.sepa.org.uk/data-visualisation/water-classification-hub/?display=information_sheet&waterbodyid=20549",
        "gauge_location_code": "356328",
        "gauge_name": "Loch A Bhraoin",
        "get_out_lat": "57.7593",
        "get_out_long": "-5.0344",
        "google_mymaps": "",
        "grade": "5",
        "guidebook_link": "https://www.ukriversguidebook.co.uk/rivers/scotland/far-north/river-cuileig-upper",
        "high_value": "1.28",
        "huge_value": "1.32",
        "kml": "",
        "latitude": "57.74466",
        "longitude": "-5.05926",
        "low_value": "1.25",
        "medium_value": "1.27",
        "name": "Cuileig (Upper)",
        "notes": "",
        "put_in_lat": "57.7447",
        "put_in_long": "-5.0584",
        "sca_guidebook_no": "34",
        "scrape_value": "1.22",
        "very_high_value": "1.30",
        "webcam": ""
    },
    {
        "access_issue": "",
        "classification": "",
        "classification_url": "",
        "gauge_location_code": "533744",
        "gauge_name": "Boleside",
        "get_out_lat": "55.5777",
        "get_out_long": "-2.5153",
        "google_mymaps": "",
        "grade": "2",
        "guidebook_link": "https://www.ukriversguidebook.co.uk/rivers/scotland/southern-uplands/river-tweed-st.-boswells-to-kelso",
        "high_value": "10",
        "huge_value": "10",
        "kml": "",
        "latitude": "55.5767",
        "longitude": "-2.5191",
        "low_value": "10",
        "medium_value": "10",
        "name": "Tweed (Makerstoun)",
        "notes": "Please send calibrations for this Boleside gauge as relevant for Makerstoun",
        "put_in_lat": "55.580299",
        "put_in_long": "-2.654166",
        "sca_guidebook_no": "306",
        "scrape_value": "10",
        "very_high_value": "10",
        "webcam": "https://www.farsondigitalwatercams.com/locations/kelso",
        "webcam_thumbnail": "https://watercams.azureedge.net/live-images/W1siZiIsImtlbHNvLzIwMTkvMDEvMjEvMDg6NTA6MDAuanBnIl0sWyJwIiwidGh1bWIiLCJ4MTUwIl1d.jpg"
    },
    {
        "access_issue": "",
        "classification": "Good",
        "classification_url": "https://www.sepa.org.uk/data-visualisation/water-classification-hub/?display=information_sheet&waterbodyid=20121",
        "gauge_location_code": "234209",
        "gauge_name": "Easter Turnaig",
        "get_out_lat": "57.9614",
        "get_out_long": "-4.7296",
        "google_mymaps": "",
        "grade": "4(5)",
        "guidebook_link": "https://www.ukriversguidebook.co.uk/rivers/scotland/far-north/river-einig",
        "high_value": "1",
        "huge_value": "1.4",
        "kml": "",
        "latitude": "57.939857",
        "longitude": "-4.7957989",
        "low_value": "0.6",
        "medium_value": "0.7",
        "name": "Einig",
        "notes": "",
        "put_in_lat": "57.9366",
        "put_in_long": "-4.8075",
        "sca_guidebook_no": "20",
        "scrape_value": "0.5",
        "very_high_value": "1.2",
        "webcam": ""
    },
    {
        "access_issue": "",
        "classification": "Good",
        "classification_url": "https://www.sepa.org.uk/data-visualisation/water-classification-hub/?display=information_sheet&waterbodyid=20124",
        "gauge_location_code": "234209",
        "gauge_name": "Easter Turnaig",
        "get_out_lat": "57.9366",
        "get_out_long": "-4.8075",
        "google_mymaps": "",
        "grade": "4(5)",
        "guidebook_link": "https://www.ukriversguidebook.co.uk/rivers/scotland/far-north/corriemulzie-river",
        "high_value": "1.2",
        "huge_value": "1.6",
        "kml": "",
        "latitude": "57.916508",
        "longitude": "-4.8232514",
        "low_value": "0.8",
        "medium_value": "1",
        "name": "Corriemulzie",
        "notes": "",
        "put_in_lat": "57.9134",
        "put_in_long": "-4.8298",
        "sca_guidebook_no": "22",
        "scrape_value": "0.7",
        "very_high_value": "1.4",
        "webcam": ""
    },
    {
        "access_issue": "",
        "classification": "Moderate ecological potential",
        "classification_url": "https://www.sepa.org.uk/data-visualisation/water-classification-hub/?display=information_sheet&waterbodyid=10924",
        "gauge_location_code": "133060",
        "gauge_name": "Auchendrane",
        "get_out_lat": "55.4580",
        "get_out_long": "-4.5368",
        "google_mymaps": "https://drive.google.com/open?id=1D3tNHsjyNitqR7H3KnxfbGCkupQuulXk&usp=sharing",
        "grade": "3 (3+)",
        "guidebook_link": "https://www.ukriversguidebook.co.uk/rivers/scotland/southern-uplands/river-doon-ness-glen",
        "high_value": "1.2",
        "huge_value": "1.8",
        "kml": "",
        "latitude": "55.404293",
        "longitude": "-4.630728",
        "low_value": "0.8",
        "medium_value": "1.0",
        "name": "Doon (Lower)",
        "notes": "",
        "put_in_lat": "55.4046",
        "put_in_long": "-4.6308",
        "sca_guidebook_no": "278",
        "scrape_value": "0.7",
        "very_high_value": "1.5",
        "webcam": "https://www.farsondigitalwatercams.com/locations/doonfoot",
        "webcam_thumbnail": "https://watercams.azureedge.net/live-images/W1siZiIsImRvb24vMjAxOS8wMS8yMS8wODo1MDowMC5qcGciXSxbInAiLCJ0aHVtYiIsIngxNTAiXV0.jpg"
    },
    {
        "access_issue": "",
        "classification": "Moderate",
        "classification_url": "https://www.sepa.org.uk/data-visualisation/water-classification-hub/?display=information_sheet&waterbodyid=5287",
        "gauge_location_code": "14990",
        "gauge_name": "Lindean",
        "get_out_lat": "55.5501",
        "get_out_long": "-2.8508",
        "google_mymaps": "https://drive.google.com/open?id=1CdpeqnhYWUOEjzGL7xNaXglCF9CHi4Ng&usp=sharing",
        "grade": "2/3 (3+)",
        "guidebook_link": "https://www.ukriversguidebook.co.uk/rivers/scotland/southern-uplands/river-ettrick-ettrickbridge-to-selkirk",
        "high_value": "1.20",
        "huge_value": "1.8",
        "kml": "",
        "latitude": "55.4992",
        "longitude": "-2.9873",
        "low_value": "0.75",
        "medium_value": "0.85",
        "name": "Ettrick (Gorge)",
        "notes": "",
        "put_in_lat": "55.4992",
        "put_in_long": "-2.9873",
        "sca_guidebook_no": "310",
        "scrape_value": "0.70",
        "very_high_value": "1.5",
        "webcam": "https://www.farsondigitalwatercams.com/locations/philliphaugh",
        "webcam_thumbnail": "https://watercams.azureedge.net/live-images/W1siZiIsInBoaWxsaXBoYXVnaC8yMDE5LzAxLzIxLzA4OjUwOjAwLmpwZyJdLFsicCIsInRodW1iIiwieDE1MCJdXQ.jpg"
    },
    {
        "access_issue": "",
        "classification": "Poor ecological potential",
        "classification_url": "https://www.sepa.org.uk/data-visualisation/water-classification-hub/?display=information_sheet&waterbodyid=5101",
        "gauge_location_code": "15018",
        "gauge_name": "Abbey St Bathans",
        "get_out_lat": "55.8125",
        "get_out_long": "-2.3600",
        "google_mymaps": "",
        "grade": "2/3 (4)",
        "guidebook_link": "https://www.ukriversguidebook.co.uk/rivers/scotland/southern-uplands/river-whiteadder",
        "high_value": "0.9",
        "huge_value": "1.4",
        "kml": "",
        "latitude": "55.854021",
        "longitude": "-2.387013",
        "low_value": "0.5",
        "medium_value": "0.7",
        "name": "Whiteadder Water",
        "notes": "",
        "put_in_lat": "55.8536",
        "put_in_long": "-2.3871",
        "sca_guidebook_no": "305",
        "scrape_value": "0.4",
        "very_high_value": "1.2",
        "webcam": ""
    },
    {
        "access_issue": "",
        "classification": "",
        "classification_url": "",
        "gauge_location_code": "15001",
        "gauge_name": "Hawick",
        "get_out_lat": "55.4429",
        "get_out_long": "-2.7397",
        "google_mymaps": "",
        "grade": "2 (3-)",
        "guidebook_link": "https://www.ukriversguidebook.co.uk/rivers/scotland/southern-uplands/river-teviot-martins-bridge-to-riverside-caravan-park",
        "high_value": "1.5",
        "huge_value": "2.0",
        "kml": "",
        "latitude": "55.411079",
        "longitude": "-2.823299",
        "low_value": "0.7",
        "medium_value": "1",
        "name": "Teviot",
        "notes": "Webcam link is near Kelso.",
        "put_in_lat": "55.4126",
        "put_in_long": "-2.8213",
        "sca_guidebook_no": "307",
        "scrape_value": "0.4",
        "very_high_value": "1.8",
        "webcam": "https://www.farsondigitalwatercams.com/locations/eckford",
        "webcam_thumbnail": "https://watercams.azureedge.net/live-images/W1siZiIsInRldmlvdC8yMDE5LzAxLzIxLzA4OjUwOjAwLmpwZyJdLFsicCIsInRodW1iIiwieDE1MCJdXQ.jpg"
    },
    {
        "access_issue": "https://www.facebook.com/will.leigh.3/videos/2089680591047360/",
        "classification": "Good",
        "classification_url": "https://www.sepa.org.uk/data-visualisation/water-classification-hub/?display=information_sheet&waterbodyid=5701",
        "gauge_location_code": "371579",
        "gauge_name": "Inveriscandye",
        "get_out_lat": "55.8278",
        "get_out_long": "-2.6567",
        "google_mymaps": "https://drive.google.com/open?id=1ksoUeNPrTjXDickP0idcLMYmsXnDUuFT&usp=sharing",
        "grade": "3(4)",
        "guidebook_link": "https://www.ukriversguidebook.co.uk/rivers/scotland/north-east/river-north-esk-scout-camp-to-edzell",
        "high_value": "0.4",
        "huge_value": "0.95",
        "kml": "http://canoescotland.org/wheres-the-water/kml/lower-north-esk.kmz",
        "latitude": "56.8302",
        "longitude": "-2.65869",
        "low_value": "0.22",
        "medium_value": "0.3",
        "name": "North Esk (Lower)",
        "notes": "New gauge April 2018, calibrations updated Jan 2019, please send calibrations to confirm/adjust.",
        "put_in_lat": "55.8669",
        "put_in_long": "-2.7007",
        "sca_guidebook_no": "244",
        "scrape_value": "0.14",
        "very_high_value": "0.7",
        "webcam": "https://www.farsondigitalwatercams.com/locations/edzell",
        "webcam_thumbnail": "https://watercams.azureedge.net/live-images/W1siZiIsImVza19lZHplbGwvMjAxOS8wMS8yMS8wODo1MDowMC5qcGciXSxbInAiLCJ0aHVtYiIsIngxNTAiXV0.jpg"
    },
    {
        "access_issue": "",
        "classification": "Moderate ecological potential",
        "classification_url": "https://www.sepa.org.uk/data-visualisation/water-classification-hub/?display=information_sheet&waterbodyid=23392",
        "gauge_location_code": "234225",
        "gauge_name": "Garve",
        "get_out_lat": "57.5794",
        "get_out_long": "-4.5967",
        "google_mymaps": "",
        "grade": "3-4(5)",
        "guidebook_link": "https://www.ukriversguidebook.co.uk/rivers/scotland/far-north/river-blackwater",
        "high_value": "0.9",
        "huge_value": "1.4",
        "kml": "",
        "latitude": "57.5685",
        "longitude": "-4.58164",
        "low_value": "0.4",
        "medium_value": "0.6",
        "name": "Blackwater (Garve)",
        "notes": "New gauge Oct 2018 for Blackwater (Lower). Gauge for upper/middle has been removed by SEPA.",
        "put_in_lat": "57.5902",
        "put_in_long": "-4.6067",
        "sca_guidebook_no": "051",
        "scrape_value": "0.1",
        "very_high_value": "1.1",
        "webcam": ""
    },
    {
        "access_issue": "",
        "classification": "",
        "classification_url": "",
        "gauge_location_code": "133149",
        "gauge_name": "Capenoch",
        "get_out_lat": "55.2297",
        "get_out_long": "-3.8108",
        "google_mymaps": "https://drive.google.com/open?id=1guM4OQGx24XhKw8u66Cj4H-vpuvS_nEX&usp=sharing",
        "grade": "3 (4/5)",
        "guidebook_link": "https://www.ukriversguidebook.co.uk/rivers/scotland/southern-uplands/scaur-water",
        "high_value": "1.4",
        "huge_value": "2.0",
        "kml": "",
        "latitude": "55.2630",
        "longitude": "-3.8795",
        "low_value": "0.9",
        "medium_value": "1.1",
        "name": "Scaur Water",
        "notes": "Also called Scar Water.",
        "put_in_lat": "55.2629",
        "put_in_long": "-3.8821",
        "sca_guidebook_no": "288",
        "scrape_value": "0.8",
        "very_high_value": "1.8",
        "webcam": ""
    },
    {
        "access_issue": "",
        "classification": "Moderate",
        "classification_url": "https://www.sepa.org.uk/data-visualisation/water-classification-hub/?display=information_sheet&waterbodyid=5288",
        "gauge_location_code": "14987",
        "gauge_name": "Brockhoperig",
        "get_out_lat": "55.4171",
        "get_out_long": "-3.1806",
        "google_mymaps": "",
        "grade": "2/3",
        "guidebook_link": "https://www.ukriversguidebook.co.uk/rivers/scotland/southern-uplands/river-ettrick-upper-section",
        "high_value": "1.2",
        "huge_value": "1.4",
        "kml": "",
        "latitude": "55.3892",
        "longitude": "-3.2453",
        "low_value": "0.75",
        "medium_value": "1.1",
        "name": "Ettrick (Upper)",
        "notes": "Not many calibrations for higher levels, please send more",
        "put_in_lat": "55.3892",
        "put_in_long": "-3.2453",
        "sca_guidebook_no": "310",
        "scrape_value": "0.7",
        "very_high_value": "1.3",
        "webcam": ""
    },
    {
        "access_issue": "",
        "classification": "Moderate",
        "classification_url": "https://www.sepa.org.uk/data-visualisation/water-classification-hub/?display=information_sheet&waterbodyid=23316",
        "gauge_location_code": "368014",
        "gauge_name": "Garthdee",
        "google_mymaps": "",
        "grade": "1",
        "guidebook_link": "",
        "high_value": "2",
        "huge_value": "2",
        "kml": "",
        "latitude": "57.076163",
        "longitude": "-2.3381246",
        "low_value": "0.77",
        "medium_value": "1",
        "name": "Dee (Drumoak)",
        "notes": "Marathon site. Based on 1 calibration at Drumoak using Garthdee gauge, please fill in form to report more",
        "sca_guidebook_no": "240",
        "scrape_value": "0.0",
        "very_high_value": "2",
        "webcam": "https://www.farsondigitalwatercams.com/locations/banchory",
        "webcam_thumbnail": "https://watercams.azureedge.net/live-images/W1siZiIsImZldWdoX2ZhbGxzLzIwMTkvMDEvMjEvMDg6NTA6MDAuanBnIl0sWyJwIiwidGh1bWIiLCJ4MTUwIl1d.jpg"
    },
    {
        "access_issue": "",
        "classification": "Good",
        "classification_url": "https://www.sepa.org.uk/data-visualisation/water-classification-hub/?display=information_sheet&waterbodyid=23328",
        "gauge_location_code": "234237",
        "gauge_name": "Heugh Head",
        "get_out_lat": "56.9644",
        "get_out_long": "-2.5752",
        "google_mymaps": "",
        "grade": "2/3",
        "guidebook_link": "https://www.ukriversguidebook.co.uk/rivers/scotland/north-east/river-dye",
        "high_value": "2.8",
        "huge_value": "3.0",
        "kml": "",
        "latitude": "56.964506",
        "longitude": "-2.575959",
        "low_value": "2.2",
        "medium_value": "2.5",
        "name": "Dye",
        "notes": "Added Nov 2018. Please report calibrations to confirm or adjust. Gauge and webcam link is on Feuch.",
        "put_in_lat": "56.9493",
        "put_in_long": "-2.5848",
        "sca_guidebook_no": "242",
        "scrape_value": "1.8",
        "very_high_value": "2.9",
        "webcam": "https://www.farsondigitalwatercams.com/locations/banchory",
        "webcam_thumbnail": "https://watercams.azureedge.net/live-images/W1siZiIsImZldWdoX2ZhbGxzLzIwMTkvMDEvMjEvMDg6NTA6MDAuanBnIl0sWyJwIiwidGh1bWIiLCJ4MTUwIl1d.jpg"
    },
    {
        "access_issue": "",
        "classification": "",
        "classification_url": "",
        "gauge_location_code": "234198",
        "gauge_name": "Delnashaugh",
        "get_out_lat": "57.4056",
        "get_out_long": "-3.3610",
        "google_mymaps": "",
        "grade": "3(5)",
        "guidebook_link": "",
        "high_value": "1",
        "huge_value": "1.3",
        "kml": "",
        "latitude": "57.2396",
        "longitude": "-3.3890",
        "low_value": "0.8",
        "medium_value": "0.85",
        "name": "Avon (Spey)",
        "notes": "New entry Nov 2018. Please fill in calibration report to confirm/adjust.",
        "put_in_lat": "57.2396",
        "put_in_long": "-3.3890",
        "sca_guidebook_no": "197",
        "scrape_value": "0.7",
        "very_high_value": "1.2",
        "webcam": ""
    },
    {
        "access_issue": "",
        "classification": "Good",
        "classification_url": "https://www.sepa.org.uk/data-visualisation/water-classification-hub/?display=information_sheet&waterbodyid=23346",
        "gauge_location_code": "234274",
        "gauge_name": "Mar Lodge",
        "get_out_lat": "56.9886",
        "get_out_long": "-3.4791",
        "google_mymaps": "",
        "grade": "1/3",
        "guidebook_link": "https://www.ukriversguidebook.co.uk/rivers/scotland/north-east/river-dee-above-braemar-to-potarch",
        "high_value": "1",
        "huge_value": "1",
        "kml": "",
        "latitude": "56.9882",
        "longitude": "-3.5458",
        "low_value": "1",
        "medium_value": "1",
        "name": "Dee (Grampian) (Top)",
        "notes": "Please send calibrations for this section on with Mar Lodge gauge",
        "put_in_lat": "56.9882",
        "put_in_long": "-3.5458",
        "sca_guidebook_no": "240",
        "scrape_value": "1",
        "very_high_value": "1",
        "webcam": "https://www.farsondigitalwatercams.com/locations/mar_lodge"
    },
    {
        "access_issue": "",
        "classification": "Good",
        "classification_url": "https://www.sepa.org.uk/data-visualisation/water-classification-hub/?display=information_sheet&waterbodyid=23182",
        "gauge_location_code": "369548",
        "gauge_name": "Huntly GS",
        "google_mymaps": "",
        "grade": "1-2",
        "guidebook_link": "",
        "high_value": "0.8",
        "huge_value": "1.2",
        "kml": "",
        "latitude": "57.454986",
        "longitude": "-2.8075603",
        "low_value": "0.5",
        "medium_value": "0.7",
        "name": "Deveron",
        "notes": "New calibrations 31-03-2019. Please send more reports for confirmation or correction.",
        "sca_guidebook_no": "Touring 080",
        "scrape_value": "0.3",
        "very_high_value": "1",
        "webcam": "https://www.farsondigitalwatercams.com/locations/avochie",
        "webcam_thumbnail": "https://watercams.azureedge.net/live-images/W1siZiIsImF2b2NoaWUvMjAxOS8wMS8yMS8wODo1MDowMC5qcGciXSxbInAiLCJ0aHVtYiIsIngxNTAiXV0.jpg"
    },
    {
        "access_issue": "",
        "classification": "Poor",
        "classification_url": "https://www.sepa.org.uk/data-visualisation/water-classification-hub/?display=information_sheet&waterbodyid=10540",
        "gauge_location_code": "133177",
        "gauge_name": "Rusko",
        "get_out_lat": "54.9159",
        "get_out_long": "-4.2061",
        "google_mymaps": "",
        "grade": "3/4+",
        "guidebook_link": "https://www.ukriversguidebook.co.uk/rivers/scotland/southern-uplands/big-water-of-fleet",
        "high_value": "1.8",
        "huge_value": "2.5",
        "kml": "",
        "latitude": "54.9515",
        "longitude": "-4.2531",
        "low_value": "1",
        "medium_value": "1.1",
        "name": "Big Water of Fleet",
        "notes": "New gauge 12/12/18, please send calibrations to confirm/adjust",
        "put_in_lat": "54.9515",
        "put_in_long": "-4.2531",
        "sca_guidebook_no": "303",
        "scrape_value": "0.8",
        "very_high_value": "2",
        "webcam": ""
    },
    {
        "access_issue": "",
        "classification": "Poor",
        "classification_url": "https://www.sepa.org.uk/data-visualisation/water-classification-hub/?display=information_sheet&waterbodyid=20451",
        "gauge_location_code": "234252",
        "gauge_name": "Killilan",
        "get_out_lat": "57.3177",
        "get_out_long": "-5.4256",
        "google_mymaps": "",
        "grade": "4/5",
        "guidebook_link": "https://www.ukriversguidebook.co.uk/rivers/scotland/far-north/river-ling",
        "high_value": "0.9",
        "huge_value": "1.3",
        "kml": "",
        "latitude": "57.336696",
        "longitude": "-5.415560",
        "low_value": "0.6",
        "medium_value": "0.7",
        "name": "Ling",
        "notes": "New section Jan 2019. Calibrations based on only 3 readings, please send more.",
        "put_in_lat": "57.3410",
        "put_in_long": "-5.4051",
        "sca_guidebook_no": "62",
        "scrape_value": "0.47",
        "very_high_value": "1.1",
        "webcam": ""
    },
    {
        "access_issue": "",
        "classification": "Good",
        "classification_url": "https://www.sepa.org.uk/data-visualisation/water-classification-hub/?display=information_sheet&waterbodyid=23347",
        "gauge_location_code": "234243",
        "gauge_name": "Invergairn",
        "get_out_lat": "57.0603",
        "get_out_long": "-3.0695",
        "google_mymaps": "",
        "grade": "2(3/4)",
        "guidebook_link": "",
        "high_value": "1",
        "huge_value": "1.5",
        "kml": "",
        "latitude": "57.059926",
        "longitude": "-3.0695189",
        "low_value": "0.65",
        "medium_value": "0.8",
        "name": "Gairn",
        "notes": "",
        "put_in_lat": "57.0662",
        "put_in_long": "-3.0776",
        "sca_guidebook_no": "239",
        "scrape_value": "0.6",
        "very_high_value": "1.2",
        "webcam": "https://www.farsondigitalwatercams.com/locations/bridge-of-gairn"
    },
    {
        "access_issue": "",
        "classification": "",
        "classification_url": "",
        "gauge_location_code": "133151",
        "gauge_name": "Dalbeattie",
        "get_out_lat": "54.9774",
        "get_out_long": "-3.8889",
        "google_mymaps": "",
        "grade": "3 (3+)",
        "guidebook_link": "https://en.wikipedia.org/wiki/Urr_Water",
        "high_value": "1.6",
        "huge_value": "2",
        "kml": "",
        "latitude": "55.0610",
        "longitude": "-3.9329",
        "low_value": "1.0",
        "medium_value": "1.3",
        "name": "Urr Water",
        "notes": "New section Jan 2019",
        "put_in_lat": "55.0610",
        "put_in_long": "-3.9329",
        "sca_guidebook_no": "291",
        "scrape_value": "0.8",
        "very_high_value": "1.8",
        "webcam": ""
    },
    {
        "access_issue": "",
        "classification": "",
        "classification_url": "",
        "gauge_location_code": "133175",
        "gauge_name": "Redhall",
        "get_out_lat": "55.1362",
        "get_out_long": "-3.4798",
        "google_mymaps": "",
        "grade": "3 (4)",
        "guidebook_link": "https://www.ukriversguidebook.co.uk/rivers/scotland/southern-uplands/kinnel-water",
        "high_value": "1.5",
        "huge_value": "1.8",
        "kml": "",
        "latitude": "55.2475",
        "longitude": "-3.4710",
        "low_value": "1.1",
        "medium_value": "1.3",
        "name": "Kinnel Water",
        "notes": "",
        "put_in_lat": "55.2475",
        "put_in_long": "-3.4710",
        "sca_guidebook_no": "315",
        "scrape_value": "0.9",
        "very_high_value": "1.7",
        "webcam": ""
    },
    {
        "access_issue": "",
        "classification": "",
        "classification_url": "",
        "gauge_location_code": "133168",
        "gauge_name": "Minnoch Bridge",
        "get_out_lat": "55.0408",
        "get_out_long": "-4.5644",
        "google_mymaps": "",
        "grade": "3/4",
        "guidebook_link": "https://www.ukriversguidebook.co.uk/rivers/scotland/southern-uplands/water-of-minnoch-palgowan-bridge-to-stroan-bridge",
        "high_value": "1.8",
        "huge_value": "2.5",
        "kml": "",
        "latitude": "55.0748",
        "longitude": "-4.5529",
        "low_value": "0.8",
        "medium_value": "1.5",
        "name": "Water of Minnoch (Lower)",
        "notes": "New lower calibrations April 2019",
        "put_in_lat": "55.0748",
        "put_in_long": "-4.5529",
        "sca_guidebook_no": "299",
        "scrape_value": "0.7",
        "very_high_value": "2.0",
        "webcam": ""
    },
    {
        "access_issue": "",
        "classification": "",
        "classification_url": "",
        "gauge_location_code": "14954",
        "gauge_name": "Almondbank",
        "get_out_lat": "",
        "get_out_long": "",
        "google_mymaps": "",
        "grade": "2/3(5)",
        "guidebook_link": "",
        "high_value": "1",
        "huge_value": "1",
        "kml": "",
        "latitude": "56.4623",
        "longitude": "-3.8070",
        "low_value": "1",
        "medium_value": "1",
        "name": "Almond (Perthshire)",
        "notes": "No calibrations yet, please send them in",
        "put_in_lat": "",
        "put_in_long": "",
        "sca_guidebook_no": "229",
        "scrape_value": "1",
        "very_high_value": "1",
        "webcam": ""
    },
    {
        "access_issue": "",
        "gauge_location_code": "234262",
        "gauge_name": "Levishie",
        "get_out_lat": "57.2016",
        "get_out_long": "-4.7102",
        "google_mymaps": "",
        "grade": "4(5)",
        "guidebook_link": "https://www.ukriversguidebook.co.uk/rivers/scotland/far-north/river-moriston-upper-section",
        "high_value": "0.4",
        "huge_value": "0.4",
        "kml": "",
        "latitude": "57.219377",
        "longitude": "-4.6480849",
        "low_value": "0.4",
        "medium_value": "0.4",
        "name": "Moriston",
        "notes": "New gauge, please send calibrations",
        "put_in_lat": "57.2023",
        "put_in_long": "-4.7198",
        "sca_guidebook_no": "90",
        "scrape_value": "0.4",
        "very_high_value": "0.4",
        "webcam": ""
    },
    {
        "access_issue": "",
        "classification": "",
        "classification_url": "",
        "gauge_location_code": "14963",
        "get_out_lat": "56.648565",
        "get_out_long": "-3.6716007",
        "google_mymaps": "",
        "grade": "1(2)",
        "guidebook_link": "https://www.ukriversguidebook.co.uk/rivers/scotland/central-highlands/river-tummel-pitlochry-to-the-tay",
        "high_value": "0.58",
        "huge_value": "0.58",
        "kml": "",
        "latitude": "56.696568",
        "longitude": "-3.7207949",
        "low_value": "0.58",
        "medium_value": "0.58",
        "name": "Tummel (Bottom)",
        "notes": "New section added April 2019.  0.58 reported as medium.  Please send more calibrations.",
        "put_in_lat": "56.696568",
        "put_in_long": "-3.7207949",
        "sca_guidebook_no": "Touring 85",
        "scrape_value": "0.58",
        "very_high_value": "0.58",
        "webcam": "https://www.farsondigitalwatercams.com/locations/pitlochry"
    }
]
