[
    {
        "name": "Garry",
        "gauge_location_code": "234189",
        "longitude": "-4.84497",
        "latitude": "57.0759",
        "scrape_value": "0.4",
        "low_value": "0.6",
        "medium_value": "0.8",
        "high_value": "1",
        "very_high_value": "1.4",
        "huge_value": "1.8",
        "grade": "3",
        "guidebook_link": "https:\/\/www.ukriversguidebook.co.uk\/rivers\/scotland\/west-highlands\/river-garry",
        "sca_guidebook_no": ""
    },
    {
        "name": "Tweed (Berwick)",
        "gauge_location_code": "9514",
        "longitude": "-2.1633731",
        "latitude": "55.722689",
        "scrape_value": "0",
        "low_value": "1.2",
        "medium_value": "1.7",
        "high_value": "2",
        "very_high_value": "2.5",
        "huge_value": "3.5",
        "grade": "",
        "guidebook_link": "",
        "sca_guidebook_no": ""
    },
    {
        "name": "Ness",
        "gauge_location_code": "234287",
        "longitude": "-4.23265",
        "latitude": "57.4631",
        "scrape_value": "0",
        "low_value": "0.9",
        "medium_value": "1.3",
        "high_value": "1.6",
        "very_high_value": "2",
        "huge_value": "2.3",
        "grade": "",
        "guidebook_link": "",
        "sca_guidebook_no": ""
    },
    {
        "name": "Gryfe",
        "gauge_location_code": "133073",
        "longitude": "-4.56654",
        "latitude": "55.8566",
        "scrape_value": "0.3",
        "low_value": "0.4",
        "medium_value": "0.5",
        "high_value": "0.6",
        "very_high_value": "0.8",
        "huge_value": "1",
        "grade": "",
        "guidebook_link": "",
        "sca_guidebook_no": ""
    },
    {
        "name": "Yarrow",
        "gauge_location_code": "14985",
        "longitude": "-2.96803",
        "latitude": "55.5514",
        "scrape_value": "0.4",
        "low_value": "0.8",
        "medium_value": "1.2",
        "high_value": "1.6",
        "very_high_value": "2",
        "huge_value": "3",
        "grade": "2\/3",
        "guidebook_link": "https:\/\/www.ukriversguidebook.co.uk\/rivers\/scotland\/southern-uplands\/river-yarrow-yarrowford-to-generals-brig",
        "sca_guidebook_no": "",
        "access_issue": "http:\/\/canoescotland.org\/news\/river-yarrow-fallen-tree-and-wire"
    },
    {
        "name": "Ayr",
        "gauge_location_code": "133111",
        "longitude": "-4.48036",
        "latitude": "55.4798",
        "scrape_value": "0.4",
        "low_value": "0.6",
        "medium_value": "0.8",
        "high_value": "1",
        "very_high_value": "1.3",
        "huge_value": "1.6",
        "grade": "",
        "guidebook_link": "",
        "sca_guidebook_no": ""
    },
    {
        "name": "Findhorn (Gorge)",
        "gauge_location_code": "234306",
        "longitude": "-3.65982",
        "latitude": "57.588",
        "scrape_value": "0",
        "low_value": "0.2",
        "medium_value": "0.3",
        "high_value": "0.37",
        "very_high_value": "0.5",
        "huge_value": "0.8",
        "grade": "3\/4 (5)",
        "guidebook_link": "https:\/\/www.ukriversguidebook.co.uk\/rivers\/scotland\/north-east\/river-findhorn-randolphs-leap-to-mains-of-sluie",
        "sca_guidebook_no": ""
    },
    {
        "name": "Brora",
        "gauge_location_code": "234174",
        "longitude": "-3.90392",
        "latitude": "58.0126",
        "scrape_value": "0.8",
        "low_value": "1",
        "medium_value": "1.2",
        "high_value": "1.4",
        "very_high_value": "1.6",
        "huge_value": "1.8",
        "grade": "2",
        "guidebook_link": "",
        "sca_guidebook_no": ""
    },
    {
        "name": "Inver",
        "gauge_location_code": "234264",
        "longitude": "-5.19825",
        "latitude": "58.1602",
        "scrape_value": "0.6",
        "low_value": "0.8",
        "medium_value": "1",
        "high_value": "1.2",
        "very_high_value": "1.3",
        "huge_value": "1.5",
        "grade": "4",
        "guidebook_link": "https:\/\/www.ukriversguidebook.co.uk\/rivers\/scotland\/far-north\/river-inver",
        "sca_guidebook_no": ""
    },
    {
        "name": "Upper Meig",
        "gauge_location_code": "234227",
        "longitude": "-4.77425",
        "latitude": "57.554",
        "scrape_value": "0",
        "low_value": "0.2",
        "medium_value": "0.5",
        "high_value": "0.8",
        "very_high_value": "1.3",
        "huge_value": "1.5",
        "grade": "2\/3",
        "guidebook_link": "https:\/\/www.ukriversguidebook.co.uk\/rivers\/scotland\/far-north\/river-meig-upper-section-above-dam",
        "sca_guidebook_no": ""
    },
    {
        "name": "Allan Water",
        "gauge_location_code": "14890",
        "longitude": "-3.95576",
        "latitude": "56.1611",
        "scrape_value": "0.7",
        "low_value": "1",
        "medium_value": "1.1",
        "high_value": "1.3",
        "very_high_value": "1.5",
        "huge_value": "1.7",
        "grade": "3+(4)",
        "guidebook_link": "https:\/\/www.ukriversguidebook.co.uk\/rivers\/scotland\/central-highlands\/river-allan",
        "sca_guidebook_no": ""
    },
    {
        "name": "Tay (Stanley)",
        "gauge_location_code": "14937",
        "longitude": "-3.42911",
        "latitude": "56.4811",
        "scrape_value": "0",
        "low_value": "0",
        "medium_value": "1",
        "high_value": "2",
        "very_high_value": "2.7",
        "huge_value": "5",
        "grade": "2\/3",
        "guidebook_link": "https:\/\/www.ukriversguidebook.co.uk\/rivers\/scotland\/central-highlands\/river-tay-stanley-to-thistlebrig",
        "sca_guidebook_no": ""
    },
    {
        "name": "Findhorn (Middle)",
        "gauge_location_code": "234306",
        "longitude": "-3.67493",
        "latitude": "57.5394",
        "scrape_value": "0.2",
        "low_value": "0.3",
        "medium_value": "0.4",
        "high_value": "0.8",
        "very_high_value": "1",
        "huge_value": "1.4",
        "grade": "2\/3",
        "guidebook_link": "https:\/\/www.ukriversguidebook.co.uk\/rivers\/scotland\/north-east\/river-findhorn-logie-bridge-to-randolphs-leap",
        "sca_guidebook_no": ""
    },
    {
        "name": "Girvan",
        "gauge_location_code": "133123",
        "longitude": "-4.56207",
        "latitude": "55.3143",
        "scrape_value": "0.4",
        "low_value": "0.5",
        "medium_value": "0.7",
        "high_value": "1",
        "very_high_value": "1.2",
        "huge_value": "1.5",
        "grade": "3",
        "guidebook_link": "https:\/\/www.ukriversguidebook.co.uk\/rivers\/scotland\/southern-uplands\/water-of-girvan",
        "sca_guidebook_no": ""
    },
    {
        "name": "Kelvin",
        "gauge_location_code": "133080",
        "longitude": "-4.28514",
        "latitude": "55.8695",
        "scrape_value": "0.5",
        "low_value": "0.6",
        "medium_value": "0.8",
        "high_value": "1",
        "very_high_value": "1.4",
        "huge_value": "2",
        "grade": "3",
        "guidebook_link": "https:\/\/www.ukriversguidebook.co.uk\/rivers\/scotland\/west-highlands\/river-kelvin-art-galleries-wave",
        "sca_guidebook_no": ""
    },
    {
        "name": "Findhorn (Upper)",
        "gauge_location_code": "234306",
        "longitude": "-3.73398",
        "latitude": "57.4966",
        "scrape_value": "0.2",
        "low_value": "0.3",
        "medium_value": "0.35",
        "high_value": "0.8",
        "very_high_value": "1",
        "huge_value": "1.4",
        "grade": "3 (4)",
        "guidebook_link": "https:\/\/www.ukriversguidebook.co.uk\/rivers\/scotland\/north-east\/river-findhorn-dulsie-bridge-to-logie-bridge",
        "sca_guidebook_no": ""
    },
    {
        "name": "Lochay",
        "gauge_location_code": "14933",
        "longitude": "-4.491304",
        "latitude": "56.494696",
        "scrape_value": "0.6",
        "low_value": "0.8",
        "medium_value": "1",
        "high_value": "1.3",
        "very_high_value": "1.6",
        "huge_value": "2",
        "grade": "4(5)",
        "guidebook_link": "https:\/\/www.ukriversguidebook.co.uk\/rivers\/scotland\/central-highlands\/river-lochay",
        "sca_guidebook_no": ""
    },
    {
        "name": "Avon (Lower) (Glasgow)",
        "gauge_location_code": "133084",
        "longitude": "-3.98838",
        "latitude": "55.7399",
        "scrape_value": "0.7",
        "low_value": "0.85",
        "medium_value": "1",
        "high_value": "1.2",
        "very_high_value": "1.5",
        "huge_value": "1.7",
        "grade": "",
        "guidebook_link": "",
        "sca_guidebook_no": ""
    },
    {
        "name": "Falloch (Upper)",
        "gauge_location_code": "133089",
        "longitude": "-4.63383",
        "latitude": "56.3781",
        "scrape_value": "1",
        "low_value": "1.1",
        "medium_value": "1.3",
        "high_value": "1.6",
        "very_high_value": "2",
        "huge_value": "2.5",
        "grade": "2-4(5)",
        "guidebook_link": "https:\/\/www.ukriversguidebook.co.uk\/rivers\/scotland\/west-highlands\/river-falloch-upper",
        "sca_guidebook_no": ""
    },
    {
        "name": "Spean (Gorge)",
        "gauge_location_code": "234178",
        "longitude": "-4.93114",
        "latitude": "56.8904",
        "scrape_value": "0",
        "low_value": "0.7",
        "medium_value": "1.6",
        "high_value": "2.5",
        "very_high_value": "3",
        "huge_value": "4",
        "grade": "4",
        "guidebook_link": "https:\/\/www.ukriversguidebook.co.uk\/rivers\/scotland\/west-highlands\/river-spean-spean-bridge-to-lochy-confluence-the-spean-gorge",
        "sca_guidebook_no": ""
    },
    {
        "name": "Spey",
        "gauge_location_code": "234167",
        "longitude": "-3.36044",
        "latitude": "57.4468",
        "scrape_value": "0",
        "low_value": "0.4",
        "medium_value": "0.8",
        "high_value": "1.4",
        "very_high_value": "2",
        "huge_value": "2.7",
        "grade": "1-2",
        "guidebook_link": "https:\/\/www.ukriversguidebook.co.uk\/rivers\/scotland\/north-east\/river-spey-ballindalloch-to-tandhu-distillery",
        "sca_guidebook_no": ""
    },
    {
        "name": "Tilt (Marble Lodge)",
        "gauge_location_code": "14959",
        "longitude": "-3.83732",
        "latitude": "56.7774",
        "scrape_value": "0.35",
        "low_value": "0.4",
        "medium_value": "0.6",
        "high_value": "1",
        "very_high_value": "1.2",
        "huge_value": "1.5",
        "grade": "4(5)",
        "guidebook_link": "https:\/\/www.ukriversguidebook.co.uk\/rivers\/scotland\/central-highlands\/river-tilt",
        "sca_guidebook_no": ""
    },
    {
        "name": "Leny",
        "gauge_location_code": "14888",
        "longitude": "-4.2857",
        "latitude": "56.258",
        "scrape_value": "0.5",
        "low_value": "0.7",
        "medium_value": "1.2",
        "high_value": "1.5",
        "very_high_value": "1.8",
        "huge_value": "2.3",
        "grade": "3\/4(5)",
        "guidebook_link": "https:\/\/www.ukriversguidebook.co.uk\/rivers\/scotland\/central-highlands\/river-leny-a84-layby-to-lade-inn",
        "sca_guidebook_no": ""
    },
    {
        "name": "Avon (Upper) (Glasgow)",
        "gauge_location_code": "133084",
        "longitude": "-3.98632",
        "latitude": "55.7031",
        "scrape_value": "0.9",
        "low_value": "1",
        "medium_value": "1.2",
        "high_value": "1.4",
        "very_high_value": "1.6",
        "huge_value": "2",
        "grade": "3(4)",
        "guidebook_link": "",
        "sca_guidebook_no": "",
        "access_issue": "http:\/\/canoescotland.org\/news\/lanarkshire-avon-changes-weir-millheugh"
    },
    {
        "name": "Falloch (Lower)",
        "gauge_location_code": "133089",
        "longitude": "-4.721314",
        "latitude": "56.330439",
        "scrape_value": "0.8",
        "low_value": "0.9",
        "medium_value": "1",
        "high_value": "1.2",
        "very_high_value": "1.3",
        "huge_value": "1.7",
        "grade": "4\/5",
        "guidebook_link": "https:\/\/www.ukriversguidebook.co.uk\/rivers\/scotland\/west-highlands\/river-falloch-falls-of-falloch-to-loch-lomond",
        "sca_guidebook_no": ""
    },
    {
        "name": "Tay (Grandtully)",
        "gauge_location_code": "14935",
        "longitude": "-3.82874",
        "latitude": "56.6385",
        "scrape_value": "0",
        "low_value": "0",
        "medium_value": "1",
        "high_value": "1.5",
        "very_high_value": "2",
        "huge_value": "3",
        "grade": "2(3)",
        "guidebook_link": "https:\/\/www.ukriversguidebook.co.uk\/rivers\/scotland\/central-highlands\/river-tay-sca-access-point-to-grandtully",
        "sca_guidebook_no": "",
        "access_issue": "http:\/\/canoescotland.org\/news\/river-tay-grandtully-rapids"
    },
    {
        "name": "Oykel",
        "gauge_location_code": "234209",
        "longitude": "-4.73149",
        "latitude": "57.9706",
        "scrape_value": "0.5",
        "low_value": "0.7",
        "medium_value": "1",
        "high_value": "1.2",
        "very_high_value": "1.4",
        "huge_value": "1.6",
        "grade": "3(6)",
        "guidebook_link": "https:\/\/www.ukriversguidebook.co.uk\/rivers\/scotland\/far-north\/river-oykel",
        "sca_guidebook_no": ""
    },
    {
        "name": "Findhorn (Top)",
        "gauge_location_code": "234306",
        "longitude": "-3.77449",
        "latitude": "57.4501",
        "scrape_value": "0.3",
        "low_value": "0.35",
        "medium_value": "0.8",
        "high_value": "1",
        "very_high_value": "1.4",
        "huge_value": "1.6",
        "grade": "3(4)",
        "guidebook_link": "https:\/\/www.ukriversguidebook.co.uk\/rivers\/scotland\/north-east\/river-findhorn-upper-section-to-dulsie-bridge",
        "sca_guidebook_no": ""
    },
    {
        "name": "Thurso",
        "gauge_location_code": "234231",
        "longitude": "-3.52713",
        "latitude": "58.5822",
        "scrape_value": "0.4",
        "low_value": "0.5",
        "medium_value": "0.7",
        "high_value": "1",
        "very_high_value": "1.2",
        "huge_value": "1.4",
        "grade": "2\/3",
        "guidebook_link": "https:\/\/www.ukriversguidebook.co.uk\/rivers\/scotland\/far-north\/thurso-river",
        "sca_guidebook_no": ""
    },
    {
        "name": "Tarff",
        "gauge_location_code": "234155",
        "longitude": "-4.60276",
        "latitude": "57.1474",
        "scrape_value": "0.4",
        "low_value": "0.5",
        "medium_value": "0.7",
        "high_value": "0.8",
        "very_high_value": "1",
        "huge_value": "1.4",
        "grade": "5",
        "guidebook_link": "",
        "sca_guidebook_no": ""
    },
    {
        "name": "Border Esk",
        "gauge_location_code": "133148",
        "longitude": "-3.03978",
        "latitude": "55.1863",
        "scrape_value": "0.6",
        "low_value": "0.8",
        "medium_value": "1.1",
        "high_value": "1.3",
        "very_high_value": "1.7",
        "huge_value": "1.9",
        "grade": "3(4)",
        "guidebook_link": "https:\/\/www.ukriversguidebook.co.uk\/rivers\/scotland\/southern-uplands\/river-esk-scottish-borders",
        "sca_guidebook_no": ""
    },
    {
        "name": "Nith (Drumlanrig)",
        "gauge_location_code": "133154",
        "longitude": "-3.88161",
        "latitude": "55.3489",
        "scrape_value": "0.4",
        "low_value": "0.65",
        "medium_value": "1",
        "high_value": "1.2",
        "very_high_value": "1.5",
        "huge_value": "1.8",
        "grade": "3\/4",
        "guidebook_link": "https:\/\/www.ukriversguidebook.co.uk\/rivers\/scotland\/southern-uplands\/river-nith-glen-airlie-picnic-site-to-drumlanrig-bridge",
        "sca_guidebook_no": "",
        "access_issue": "http:\/\/canoescotland.org\/news\/fallen-tree-river-nith"
    },
    {
        "name": "Averon of Alness",
        "gauge_location_code": "234152",
        "longitude": "-4.27574",
        "latitude": "57.7018",
        "scrape_value": "0.6",
        "low_value": "0.8",
        "medium_value": "1",
        "high_value": "1.4",
        "very_high_value": "1.7",
        "huge_value": "2",
        "grade": "3\/4",
        "guidebook_link": "https:\/\/www.ukriversguidebook.co.uk\/rivers\/scotland\/far-north\/river-averon",
        "sca_guidebook_no": ""
    },
    {
        "name": "Snizort",
        "gauge_location_code": "234313",
        "longitude": "-6.29448",
        "latitude": "57.4124",
        "scrape_value": "0.3",
        "low_value": "0.5",
        "medium_value": "0.9",
        "high_value": "1",
        "very_high_value": "1.1",
        "huge_value": "1.3",
        "grade": "3\/4",
        "guidebook_link": "",
        "sca_guidebook_no": ""
    },
    {
        "name": "Blackwater (Perthshire)",
        "gauge_location_code": "14956",
        "longitude": "-3.4007",
        "latitude": "56.6572",
        "scrape_value": "0.75",
        "low_value": "0.8",
        "medium_value": "0.9",
        "high_value": "1.2",
        "very_high_value": "1.4",
        "huge_value": "1.7",
        "grade": "4",
        "guidebook_link": "",
        "sca_guidebook_no": ""
    },
    {
        "name": "Cree",
        "gauge_location_code": "133171",
        "longitude": "-4.63554",
        "latitude": "55.0717",
        "scrape_value": "1",
        "low_value": "1.35",
        "medium_value": "1.4",
        "high_value": "1.7",
        "very_high_value": "2.2",
        "huge_value": "3.5",
        "grade": "4(5)",
        "guidebook_link": "https:\/\/www.ukriversguidebook.co.uk\/rivers\/scotland\/southern-uplands\/river-cree",
        "sca_guidebook_no": ""
    },
    {
        "name": "Nevis (Upper)",
        "gauge_location_code": "116011",
        "longitude": "-5.00161",
        "latitude": "56.7758",
        "scrape_value": "0.5",
        "low_value": "0.65",
        "medium_value": "0.85",
        "high_value": "1",
        "very_high_value": "1.3",
        "huge_value": "1.6",
        "grade": "4(5)",
        "guidebook_link": "https:\/\/www.ukriversguidebook.co.uk\/rivers\/scotland\/west-highlands\/river-nevis-steall-gorge-to-polldubh-falls",
        "sca_guidebook_no": ""
    },
    {
        "name": "Lochy (nr Orchy)",
        "gauge_location_code": "133097",
        "longitude": "-4.79012",
        "latitude": "56.4402",
        "scrape_value": "0.5",
        "low_value": "0.8",
        "medium_value": "1",
        "high_value": "1.3",
        "very_high_value": "1.5",
        "huge_value": "2",
        "grade": "5",
        "guidebook_link": "https:\/\/www.ukriversguidebook.co.uk\/rivers\/scotland\/west-highlands\/river-lochy-tyndrum",
        "sca_guidebook_no": ""
    },
    {
        "name": "Clyde",
        "gauge_location_code": "133094",
        "longitude": "-3.83818",
        "latitude": "55.678",
        "scrape_value": "0.4",
        "low_value": "0.5",
        "medium_value": "0.6",
        "high_value": "0.7",
        "very_high_value": "0.8",
        "huge_value": "0.9",
        "grade": "",
        "guidebook_link": "https:\/\/www.ukriversguidebook.co.uk\/rivers\/scotland\/southern-uplands\/river-clyde-falls-of-clyde",
        "sca_guidebook_no": "",
        "access_issue": "http:\/\/canoescotland.org\/news\/fallen-tree-river-nith"
    },
    {
        "name": "Luss Water",
        "gauge_location_code": "133108",
        "longitude": "-4.64747",
        "latitude": "56.1014",
        "scrape_value": "0.4",
        "low_value": "0.5",
        "medium_value": "0.7",
        "high_value": "0.9",
        "very_high_value": "1",
        "huge_value": "1.2",
        "grade": "4(4+)",
        "guidebook_link": "https:\/\/www.ukriversguidebook.co.uk\/rivers\/scotland\/west-highlands\/river-luss",
        "sca_guidebook_no": ""
    },
    {
        "name": "Helmsdale",
        "gauge_location_code": "234253",
        "longitude": "-3.84727",
        "latitude": "58.158",
        "scrape_value": "0.8",
        "low_value": "0.9",
        "medium_value": "1",
        "high_value": "1.1",
        "very_high_value": "1.2",
        "huge_value": "1.3",
        "grade": "3\/4(4+)",
        "guidebook_link": "",
        "sca_guidebook_no": ""
    },
    {
        "name": "Feshie",
        "gauge_location_code": "234217",
        "longitude": "-3.89517",
        "latitude": "57.1111",
        "scrape_value": "0.4",
        "low_value": "0.5",
        "medium_value": "1",
        "high_value": "1.3",
        "very_high_value": "1.7",
        "huge_value": "2.5",
        "grade": "",
        "guidebook_link": "",
        "sca_guidebook_no": ""
    },
    {
        "name": "North Esk (Upper)",
        "gauge_location_code": "14927",
        "longitude": "-2.87979",
        "latitude": "56.8996",
        "scrape_value": "0.8",
        "low_value": "0.9",
        "medium_value": "1.1",
        "high_value": "1.3",
        "very_high_value": "1.5",
        "huge_value": "1.9",
        "grade": "4\/4+",
        "guidebook_link": "https:\/\/www.ukriversguidebook.co.uk\/rivers\/scotland\/north-east\/river-north-esk-tribs-to-dalbrack-bridge",
        "sca_guidebook_no": ""
    },
    {
        "name": "Carron (Wester Ross)",
        "gauge_location_code": "234289",
        "longitude": "-5.32631",
        "latitude": "57.4778",
        "scrape_value": "0.5",
        "low_value": "0.7",
        "medium_value": "0.9",
        "high_value": "1.3",
        "very_high_value": "1.5",
        "huge_value": "1.7",
        "grade": "",
        "guidebook_link": "",
        "sca_guidebook_no": ""
    },
    {
        "name": "Braan (Upper)",
        "gauge_location_code": "8402",
        "longitude": "-3.77174",
        "latitude": "56.5148",
        "scrape_value": "0.8",
        "low_value": "0.9",
        "medium_value": "1.1",
        "high_value": "1.3",
        "very_high_value": "1.5",
        "huge_value": "1.7",
        "grade": "2-4",
        "guidebook_link": "https:\/\/www.ukriversguidebook.co.uk\/rivers\/scotland\/central-highlands\/river-braan-upper-section-to-rumbling-bridge",
        "sca_guidebook_no": ""
    },
    {
        "name": "Lochy (Fort William)",
        "gauge_location_code": "234178",
        "longitude": "-5.03629",
        "latitude": "56.8892",
        "scrape_value": "0",
        "low_value": "0.6",
        "medium_value": "0.9",
        "high_value": "1.4",
        "very_high_value": "2.4",
        "huge_value": "3",
        "grade": "1 (2\/3)",
        "guidebook_link": "",
        "sca_guidebook_no": ""
    },
    {
        "name": "Naver",
        "gauge_location_code": "234153",
        "longitude": "-4.19266",
        "latitude": "58.4362",
        "scrape_value": "0.4",
        "low_value": "0.5",
        "medium_value": "0.6",
        "high_value": "0.7",
        "very_high_value": "0.8",
        "huge_value": "1",
        "grade": "2",
        "guidebook_link": "",
        "sca_guidebook_no": ""
    },
    {
        "name": "Teith",
        "gauge_location_code": "14887",
        "longitude": "-4.08485",
        "latitude": "56.1903",
        "scrape_value": "0",
        "low_value": "0.5",
        "medium_value": "0.8",
        "high_value": "1.5",
        "very_high_value": "2",
        "huge_value": "3",
        "grade": "2",
        "guidebook_link": "https:\/\/www.ukriversguidebook.co.uk\/rivers\/scotland\/central-highlands\/river-teith",
        "sca_guidebook_no": ""
    },
    {
        "name": "Orchy (Middle)",
        "gauge_location_code": "133087",
        "longitude": "-4.7709",
        "latitude": "56.5176",
        "scrape_value": "0.5",
        "low_value": "0.6",
        "medium_value": "0.8",
        "high_value": "1.1",
        "very_high_value": "1.5",
        "huge_value": "2",
        "grade": "3-5",
        "guidebook_link": "https:\/\/www.ukriversguidebook.co.uk\/rivers\/scotland\/west-highlands\/river-orchy-bridge-of-orchy-to-falls-of-orchy",
        "sca_guidebook_no": "",
        "access_issue": "http:\/\/canoescotland.org\/news\/glen-orchy-bailey-bridge-works-and-tree-felling"
    },
    {
        "name": "Minnoch",
        "gauge_location_code": "133168",
        "longitude": "-4.55675",
        "latitude": "55.1122",
        "scrape_value": "0.4",
        "low_value": "0.5",
        "medium_value": "0.7",
        "high_value": "0.8",
        "very_high_value": "1",
        "huge_value": "1.4",
        "grade": "5",
        "guidebook_link": "https:\/\/www.ukriversguidebook.co.uk\/rivers\/scotland\/southern-uplands\/water-of-minnoch-palgowan-bridge-to-stroan-bridge",
        "sca_guidebook_no": ""
    },
    {
        "name": "Carron (Easter Ross)",
        "gauge_location_code": "234305",
        "longitude": "-4.54971",
        "latitude": "57.8911",
        "scrape_value": "0.7",
        "low_value": "0.8",
        "medium_value": "1",
        "high_value": "1.5",
        "very_high_value": "1.8",
        "huge_value": "2",
        "grade": "4 (4+)",
        "guidebook_link": "https:\/\/www.ukriversguidebook.co.uk\/rivers\/scotland\/far-north\/river-carron",
        "sca_guidebook_no": ""
    },
    {
        "name": "Dee (Grampian)",
        "gauge_location_code": "234294",
        "longitude": "-3.204659",
        "latitude": "57.035290",
        "scrape_value": "0",
        "low_value": "0.5",
        "medium_value": "1",
        "high_value": "1.5",
        "very_high_value": "2",
        "huge_value": "2.5",
        "grade": "1-3",
        "guidebook_link": "https:\/\/www.ukriversguidebook.co.uk\/rivers\/scotland\/north-east\/river-dee-banchory-to-aberdeen",
        "sca_guidebook_no": ""
    },
    {
        "name": "Lyon",
        "gauge_location_code": "14951",
        "longitude": "-4.11644",
        "latitude": "56.5981",
        "scrape_value": "0.2",
        "low_value": "0.4",
        "medium_value": "0.6",
        "high_value": "1",
        "very_high_value": "1.4",
        "huge_value": "1.8",
        "grade": "3-4(5)",
        "guidebook_link": "https:\/\/www.ukriversguidebook.co.uk\/rivers\/scotland\/central-highlands\/river-lyon",
        "sca_guidebook_no": ""
    },
    {
        "name": "North Esk (Lower)",
        "gauge_location_code": "14927",
        "longitude": "-2.65869",
        "latitude": "56.8302",
        "scrape_value": "0.3",
        "low_value": "0.45",
        "medium_value": "0.5",
        "high_value": "0.55",
        "very_high_value": "0.75",
        "huge_value": "1.2",
        "grade": "3 (4)",
        "guidebook_link": "https:\/\/www.ukriversguidebook.co.uk\/rivers\/scotland\/north-east\/river-north-esk-scout-camp-to-edzell",
        "sca_guidebook_no": ""
    },
    {
        "name": "Dochart",
        "gauge_location_code": "14933",
        "longitude": "-4.312733",
        "latitude": "56.466841",
        "scrape_value": "0.4",
        "low_value": "0.5",
        "medium_value": "0.6",
        "high_value": "0.8",
        "very_high_value": "1",
        "huge_value": "1.2",
        "grade": "4",
        "guidebook_link": "https:\/\/www.ukriversguidebook.co.uk\/rivers\/scotland\/central-highlands\/river-dochart-falls-of-dochart",
        "sca_guidebook_no": ""
    },
    {
        "name": "Ericht",
        "gauge_location_code": "14956",
        "longitude": "-3.33564",
        "latitude": "56.5999",
        "scrape_value": "0.8",
        "low_value": "0.9",
        "medium_value": "1",
        "high_value": "1.2",
        "very_high_value": "1.4",
        "huge_value": "1.7",
        "grade": "2\/3(5)",
        "guidebook_link": "https:\/\/www.ukriversguidebook.co.uk\/rivers\/scotland\/central-highlands\/river-ericht",
        "sca_guidebook_no": ""
    },
    {
        "name": "Braan (Gorge)",
        "gauge_location_code": "8402",
        "longitude": "-3.60798",
        "latitude": "56.561",
        "scrape_value": "0.5",
        "low_value": "0.6",
        "medium_value": "0.7",
        "high_value": "0.9",
        "very_high_value": "1.15",
        "huge_value": "1.3",
        "grade": "4\/5",
        "guidebook_link": "https:\/\/www.ukriversguidebook.co.uk\/rivers\/scotland\/central-highlands\/river-braan-rumbling-bridge-to-the-hermitage",
        "sca_guidebook_no": ""
    },
    {
        "name": "Muick",
        "gauge_location_code": "234247",
        "longitude": "-3.070591",
        "latitude": "57.028694",
        "scrape_value": "0.4",
        "low_value": "0.5",
        "medium_value": "0.7",
        "high_value": "1",
        "very_high_value": "1.2",
        "huge_value": "1.5",
        "grade": "3+ (5)",
        "guidebook_link": "",
        "sca_guidebook_no": ""
    },
    {
        "name": "Almond (Lothian)",
        "gauge_location_code": "14869",
        "longitude": "-3.4633852",
        "latitude": "55.901805",
        "scrape_value": "0.5",
        "low_value": "0.6",
        "medium_value": "0.8",
        "high_value": "1",
        "very_high_value": "1.2",
        "huge_value": "1.4",
        "grade": "2 (3)",
        "guidebook_link": "https:\/\/www.ukriversguidebook.co.uk\/rivers\/scotland\/southern-uplands\/river-almond-edinburgh",
        "sca_guidebook_no": ""
    },
    {
        "name": "Tay (Kenmore)",
        "gauge_location_code": "8295",
        "longitude": "-3.9850618",
        "latitude": "56.596388",
        "scrape_value": "0.3",
        "low_value": "0.5",
        "medium_value": "0.7",
        "high_value": "1.0",
        "very_high_value": "1.5",
        "huge_value": "2.0",
        "grade": "1-2",
        "guidebook_link": "",
        "sca_guidebook_no": ""
    },
    {
        "name": "Tweed (Peebles)",
        "gauge_location_code": "14979",
        "longitude": "-3.1802468",
        "latitude": "55.648007",
        "scrape_value": "10",
        "low_value": "10",
        "medium_value": "10",
        "high_value": "10",
        "very_high_value": "10",
        "huge_value": "10",
        "grade": "1-2",
        "guidebook_link": "https:\/\/www.ukriversguidebook.co.uk\/rivers\/scotland\/southern-uplands\/river-tweed-peel-to-fairnilee-farm",
        "sca_guidebook_no": ""
    },
    {
        "name": "South Esk (Angus)",
        "gauge_location_code": "14916",
        "longitude": "-3.0279293",
        "latitude": "56.775358",
        "scrape_value": "0.9",
        "low_value": "1.0",
        "medium_value": "1.2",
        "high_value": "1.4",
        "very_high_value": "1.6",
        "huge_value": "1.8",
        "grade": "1\/3",
        "guidebook_link": "https:\/\/www.ukriversguidebook.co.uk\/rivers\/scotland\/north-east\/south-esk",
        "sca_guidebook_no": ""
    }
]